[
  {
    "id": "gaza-city-center",
    "lon": 34.47,
    "lat": 31.52,
    "cat": "conflict",
    "label": "Gaza City",
    "sub": "Major population center; heavily bombarded in Oct 2023 – Mar 2025 IDF operations. Pre-war population ~700,000.",
    "tier": 1,
    "date": "2023-10-07",
    "showLabel": true,
    "lastUpdated": "2026-03-20"
  },
  {
    "id": "rafah-city",
    "lon": 34.25,
    "lat": 31.30,
    "cat": "conflict",
    "label": "Rafah",
    "sub": "Southern Gaza city at Egyptian border; IDF major ground operation began May 2024. ~1.4M displaced persons sheltering at peak.",
    "tier": 1,
    "date": "2024-05-06",
    "showLabel": true,
    "lastUpdated": "2026-03-20"
  },
  {
    "id": "khan-yunis",
    "lon": 34.30,
    "lat": 31.35,
    "cat": "conflict",
    "label": "Khan Yunis",
    "sub": "Second-largest Gaza city; major IDF ground operation Dec 2023 – Apr 2024. Yahya Sinwar's home city.",
    "tier": 1,
    "date": "2023-12-01",
    "showLabel": true,
    "lastUpdated": "2026-03-20"
  },
  {
    "id": "jabaliya-camp",
    "lon": 34.48,
    "lat": 31.55,
    "cat": "humanitarian",
    "label": "Jabaliya Refugee Camp",
    "sub": "Largest refugee camp in Gaza (pop. ~110,000). Site of First Intifada outbreak 1987. Repeatedly struck by IDF 2023-2025.",
    "tier": 1,
    "date": "1987-12-08",
    "lastUpdated": "2026-03-20"
  },
  {
    "id": "al-shifa-hospital",
    "lon": 34.44,
    "lat": 31.52,
    "cat": "humanitarian",
    "label": "Al-Shifa Hospital",
    "sub": "Gaza's largest hospital. IDF raided Nov 2023 and Mar 2024 claiming Hamas command infrastructure. WHO reported hospital rendered non-functional.",
    "tier": 1,
    "date": "2023-11-15",
    "lastUpdated": "2026-03-20"
  },
  {
    "id": "kerem-shalom-crossing",
    "lon": 34.28,
    "lat": 31.21,
    "cat": "checkpoint",
    "label": "Kerem Shalom / Karem Abu Salem",
    "sub": "Main commercial crossing between Israel and Gaza for goods. Repeatedly closed during military operations; targeted by Hamas mortar fire.",
    "tier": 1,
    "date": "2023-10-07",
    "lastUpdated": "2026-03-20"
  },
  {
    "id": "rafah-border-crossing",
    "lon": 34.24,
    "lat": 31.28,
    "cat": "checkpoint",
    "label": "Rafah Border Crossing",
    "sub": "Only Gaza crossing not controlled by Israel; connects to Egypt. Closed by Israel after Oct 7 seizure of Philadelphi Corridor. Sole evacuation route for many civilians.",
    "tier": 1,
    "date": "2024-05-07",
    "lastUpdated": "2026-03-20"
  },
  {
    "id": "erez-crossing",
    "lon": 34.50,
    "lat": 31.60,
    "cat": "checkpoint",
    "label": "Erez / Beit Hanoun Crossing",
    "sub": "Northern Gaza pedestrian crossing. Attacked and destroyed by Hamas on Oct 7, 2023. Basis for proposed aid port in northern Gaza.",
    "tier": 1,
    "date": "2023-10-07",
    "lastUpdated": "2026-03-20"
  },
  {
    "id": "kfar-aza-kibbutz",
    "lon": 34.59,
    "lat": 31.48,
    "cat": "conflict",
    "label": "Kibbutz Kfar Aza",
    "sub": "One of the hardest-hit Israeli communities on Oct 7; 64 residents killed, many homes destroyed. Remains uninhabited as of 2026.",
    "tier": 1,
    "date": "2023-10-07",
    "lastUpdated": "2026-03-20"
  },
  {
    "id": "beeri-kibbutz",
    "lon": 34.52,
    "lat": 31.39,
    "cat": "conflict",
    "label": "Kibbutz Be'eri",
    "sub": "108 residents killed on Oct 7 — deadliest Oct 7 site for a single community. Hamas also murdered hostages during IDF response.",
    "tier": 1,
    "date": "2023-10-07",
    "lastUpdated": "2026-03-20"
  },
  {
    "id": "nova-festival-site",
    "lon": 34.56,
    "lat": 31.47,
    "cat": "conflict",
    "label": "Nova Music Festival Site",
    "sub": "364 attendees massacred by Hamas gunmen on Oct 7. Site near Kibbutz Re'im. Memorial erected; site visited by world leaders.",
    "tier": 1,
    "date": "2023-10-07",
    "lastUpdated": "2026-03-20"
  },
  {
    "id": "jerusalem-old-city",
    "lon": 35.23,
    "lat": 31.78,
    "cat": "legal",
    "label": "Jerusalem — Old City",
    "sub": "Contains Temple Mount/Haram al-Sharif (holy to Jews and Muslims), Western Wall, Church of Holy Sepulchre. Sovereignty disputed; both Israel and Palestine claim capital status.",
    "tier": 1,
    "date": "1967-06-07",
    "showLabel": true,
    "lastUpdated": "2026-03-20"
  },
  {
    "id": "temple-mount-haram",
    "lon": 35.23,
    "lat": 31.78,
    "cat": "legal",
    "label": "Temple Mount / Haram al-Sharif",
    "sub": "Most contested religious site. Israeli visits by Likud members (Sharon 2000, Ben-Gvir 2023) have triggered crises. Status quo arrangement administered by Jordanian Waqf.",
    "tier": 1,
    "date": "2000-09-28",
    "lastUpdated": "2026-03-20"
  },
  {
    "id": "ramallah-pa",
    "lon": 35.21,
    "lat": 31.90,
    "cat": "legal",
    "label": "Ramallah — PA Headquarters",
    "sub": "De facto administrative capital of the Palestinian Authority. Muqata'a compound — PA Presidential offices, Arafat's tomb. In Area A (full PA control).",
    "tier": 1,
    "date": "1994-01-01",
    "showLabel": true,
    "lastUpdated": "2026-03-20"
  },
  {
    "id": "hebron-h2",
    "lon": 35.10,
    "lat": 31.53,
    "cat": "conflict",
    "label": "Hebron (Al-Khalil) — H2",
    "sub": "Divided city: H1 (PA) and H2 (Israeli military control, ~500 settlers among 30,000 Palestinians). Most contested West Bank flashpoint. Cave of the Patriarchs / Ibrahimi Mosque.",
    "tier": 1,
    "date": "1997-01-17",
    "showLabel": true,
    "lastUpdated": "2026-03-20"
  },
  {
    "id": "jenin-refugee-camp",
    "lon": 35.30,
    "lat": 32.46,
    "cat": "conflict",
    "label": "Jenin Refugee Camp",
    "sub": "Northern West Bank refugee camp; IDF Operation Defensive Shield 2002 killed dozens. Continued IDF counterterrorism raids 2023-2026. Stronghold of armed Palestinian factions.",
    "tier": 1,
    "date": "2002-04-03",
    "lastUpdated": "2026-03-20"
  },
  {
    "id": "nablus",
    "lon": 35.26,
    "lat": 32.22,
    "cat": "conflict",
    "label": "Nablus",
    "sub": "Major West Bank city; frequent site of IDF raids. Home of Al-Aqsa Martyrs' Brigades, Lion's Den faction. Rising West Bank violence 2022-2025.",
    "tier": 1,
    "date": "2022-01-01",
    "lastUpdated": "2026-03-20"
  },
  {
    "id": "maale-adumim",
    "lon": 35.30,
    "lat": 31.77,
    "cat": "settlement",
    "label": "Ma'ale Adumim",
    "sub": "Largest Israeli settlement in the West Bank (~40,000 residents). Located just east of Jerusalem, effectively bisects Palestinian West Bank. Subject of US warnings against annexation.",
    "tier": 2,
    "date": "1975-01-01",
    "lastUpdated": "2026-03-20"
  },
  {
    "id": "ariel-settlement",
    "lon": 35.17,
    "lat": 32.10,
    "cat": "settlement",
    "label": "Ariel",
    "sub": "Major settlement in central West Bank (~20,000 residents), 20km east of Green Line. Location is a key obstacle to territorial contiguity in two-state proposals.",
    "tier": 2,
    "date": "1978-01-01",
    "lastUpdated": "2026-03-20"
  },
  {
    "id": "gush-etzion",
    "lon": 35.12,
    "lat": 31.65,
    "cat": "settlement",
    "label": "Gush Etzion",
    "sub": "Settlement bloc south of Jerusalem (~80,000 residents across multiple settlements). Jewish presence pre-1948; often cited in Israeli positions as core settlement area.",
    "tier": 2,
    "date": "1967-01-01",
    "lastUpdated": "2026-03-20"
  },
  {
    "id": "separation-barrier-kalandia",
    "lon": 35.21,
    "lat": 31.85,
    "cat": "checkpoint",
    "label": "Qalandia Checkpoint",
    "sub": "Main checkpoint between Ramallah and Jerusalem. Symbol of West Bank movement restrictions; 20,000+ Palestinians cross daily for work. Site of frequent confrontations.",
    "tier": 1,
    "date": "2001-01-01",
    "lastUpdated": "2026-03-20"
  },
  {
    "id": "bethlehem",
    "lon": 35.20,
    "lat": 31.71,
    "cat": "legal",
    "label": "Bethlehem",
    "sub": "Birthplace of Jesus; Palestinian city in Area A. Church of the Nativity. Separation barrier surrounds city on three sides, cutting it from Jerusalem. Economy dependent on Christian pilgrimage tourism.",
    "tier": 1,
    "date": "1995-01-01",
    "lastUpdated": "2026-03-20"
  },
  {
    "id": "jericho",
    "lon": 35.44,
    "lat": 31.86,
    "cat": "legal",
    "label": "Jericho",
    "sub": "Oldest continuously inhabited city in the world. First Palestinian city transferred to PA control under Oslo. In Area A; surrounded by Area C.",
    "tier": 1,
    "date": "1994-05-13",
    "lastUpdated": "2026-03-20"
  },
  {
    "id": "deir-el-balah",
    "lon": 34.35,
    "lat": 31.42,
    "cat": "humanitarian",
    "label": "Deir el-Balah",
    "sub": "Central Gaza city; major UNRWA facilities. Became one of the largest displacement centers during 2023-2025 war. UN World Food Programme distribution hub.",
    "tier": 1,
    "date": "2023-10-13",
    "lastUpdated": "2026-03-20"
  },
  {
    "id": "sheikh-jarrah-jerusalem",
    "lon": 35.23,
    "lat": 31.79,
    "cat": "legal",
    "label": "Sheikh Jarrah",
    "sub": "East Jerusalem neighborhood; Israeli court-ordered evictions of Palestinian families sparked the May 2021 crisis and Operation Guardian of the Walls. Focal point of settler land claims.",
    "tier": 1,
    "date": "2021-05-01",
    "lastUpdated": "2026-03-20"
  },
  {
    "id": "sderot",
    "lon": 34.60,
    "lat": 31.52,
    "cat": "conflict",
    "label": "Sderot",
    "sub": "Israeli city 1.5km from Gaza border; under constant rocket fire since 2001. Thousands of rockets have struck or landed near the city. Population partially evacuated Oct 2023.",
    "tier": 1,
    "date": "2001-01-01",
    "lastUpdated": "2026-03-20"
  },
  {
    "id": "ashkelon",
    "lon": 34.57,
    "lat": 31.67,
    "cat": "conflict",
    "label": "Ashkelon",
    "sub": "Israeli coastal city; major target of Hamas rockets including on Oct 7. Contains power plant that historically supplied Gaza. Population ~155,000.",
    "tier": 1,
    "date": "2023-10-07",
    "lastUpdated": "2026-03-20"
  },
  {
    "id": "unrwa-gaza-hq",
    "lon": 34.46,
    "lat": 31.50,
    "cat": "humanitarian",
    "label": "UNRWA Gaza Operations",
    "sub": "UNRWA operates 279 schools, 22 health centers in Gaza. HQ area in Gaza City damaged. Over 200 UNRWA staff killed since Oct 7. Israel accused UNRWA of Hamas ties; US suspended then partially restored funding.",
    "tier": 1,
    "date": "1950-01-01",
    "lastUpdated": "2026-03-20"
  },
  {
    "id": "tulkarm",
    "lon": 35.02,
    "lat": 32.31,
    "cat": "conflict",
    "label": "Tulkarm",
    "sub": "Northern West Bank city; Nur Shams and Tulkarm refugee camps. Major IDF counterterrorism operations 2023-2025; site of sustained militant activity.",
    "tier": 1,
    "date": "2023-01-01",
    "lastUpdated": "2026-03-20"
  },
  {
    "id": "beit-lahiya",
    "lon": 34.50,
    "lat": 31.56,
    "cat": "conflict",
    "label": "Beit Lahiya / Beit Hanoun",
    "sub": "Northern Gaza towns; among most heavily bombarded areas in 2023 war. Virtually entirely destroyed; remained under IDF control through 2025.",
    "tier": 1,
    "date": "2023-10-28",
    "lastUpdated": "2026-03-20"
  },
  {
    "id": "haifa",
    "lon": 35.00,
    "lat": 32.82,
    "cat": "conflict",
    "label": "Haifa",
    "sub": "Israel's third-largest city; major port and technology hub. Struck by Hezbollah rockets during Lebanon conflict parallel to Gaza war (2024).",
    "tier": 1,
    "date": "2024-10-01",
    "lastUpdated": "2026-03-20"
  },
  {
    "id": "philadelphi-corridor",
    "lon": 34.23,
    "lat": 31.25,
    "cat": "conflict",
    "label": "Philadelphi Corridor",
    "sub": "Narrow strip along Gaza-Egypt border; key smuggling route for Hamas weapons. Israeli military occupation of corridor was major ceasefire sticking point. IDF says tunnels ran beneath.",
    "tier": 1,
    "date": "2024-05-07",
    "lastUpdated": "2026-03-20"
  }
]
