[
  {
    "id": "bamako-mali",
    "lon": -8.00,
    "lat": 12.65,
    "cat": "coup",
    "label": "Bamako",
    "sub": "Mali's capital and seat of the Goïta junta. Site of the 2020 and 2021 coups; Africa Corps HQ; JNIM fuel blockade target since 2024. Kati garrison 15 km away struck by JNIM Sept 2024.",
    "tier": 1,
    "date": "2012-03-22",
    "showLabel": true,
    "lastUpdated": "2026-03-20T00:00:00Z"
  },
  {
    "id": "ouagadougou-burkina",
    "lon": -1.53,
    "lat": 12.37,
    "cat": "coup",
    "label": "Ouagadougou",
    "sub": "Burkina Faso's capital; site of two coups in 2022. Ibrahim Traoré's junta HQ. Africa Corps troops present. ~40% of national territory estimated outside government control.",
    "tier": 1,
    "date": "2022-01-24",
    "showLabel": true,
    "lastUpdated": "2026-03-20T00:00:00Z"
  },
  {
    "id": "niamey-niger",
    "lon": 2.11,
    "lat": 13.51,
    "cat": "coup",
    "label": "Niamey",
    "sub": "Niger's capital; site of July 2023 coup by Gen. Tchiani. Former Operation Barkhane sub-HQ. US forces expelled April–August 2024. Russian military advisers now present.",
    "tier": 1,
    "date": "2023-07-26",
    "showLabel": true,
    "lastUpdated": "2026-03-20T00:00:00Z"
  },
  {
    "id": "gao-mali",
    "lon": -0.04,
    "lat": 16.27,
    "cat": "wagner",
    "label": "Gao",
    "sub": "Former MUJAO stronghold liberated January 2013. Major French Barkhane base (Camp Firgun). Now the Africa Corps/FAMa operational hub for northern Mali. Starting point of the 2023 Kidal offensive column.",
    "tier": 1,
    "date": "2013-01-26",
    "showLabel": true,
    "lastUpdated": "2026-03-20T00:00:00Z"
  },
  {
    "id": "kidal-mali",
    "lon": 1.41,
    "lat": 18.44,
    "cat": "wagner",
    "label": "Kidal",
    "sub": "Former Tuareg/MNLA stronghold. Secured by French forces January 30, 2013. Fell to CSP-PSD rebels 2014–2023. Recaptured by FAMa/Wagner November 14, 2023. Wagner skull flag hoisted November 22, 2023.",
    "tier": 2,
    "date": "2023-11-14",
    "showLabel": true,
    "lastUpdated": "2026-03-20T00:00:00Z"
  },
  {
    "id": "timbuktu-mali",
    "lon": -3.01,
    "lat": 16.77,
    "cat": "jnim",
    "label": "Timbuktu",
    "sub": "Ancient city liberated from jihadists January 27, 2013. Under JNIM blockade since 2024; supply lines cut. Russian Africa Corps airbase struck by JNIM June 2, 2025; 60+ FAMa killed.",
    "tier": 1,
    "date": "2013-01-27",
    "showLabel": true,
    "lastUpdated": "2026-03-20T00:00:00Z"
  },
  {
    "id": "mopti-mali",
    "lon": -4.20,
    "lat": 14.49,
    "cat": "jnim",
    "label": "Mopti",
    "sub": "Epicenter of Katiba Macina / Fulani jihad. Amadou Koufa's home region. First zone of Wagner deployment (December 2021). Hub for Dogon-Fulani inter-communal violence. Near the Moura massacre site.",
    "tier": 2,
    "date": "2015-01-01",
    "showLabel": true,
    "lastUpdated": "2026-03-20T00:00:00Z"
  },
  {
    "id": "menaka-mali",
    "lon": 2.40,
    "lat": 15.92,
    "cat": "isgs",
    "label": "Ménaka",
    "sub": "IS-Sahel / ISGS operational heartland. Controls Gao-Ménaka corridor and access to the Liptako-Gourma tri-border zone. Sustained ISGS-FAMa fighting since 2017.",
    "tier": 2,
    "date": "2017-01-01",
    "lastUpdated": "2026-03-20T00:00:00Z"
  },
  {
    "id": "tessalit-mali",
    "lon": 1.00,
    "lat": 20.20,
    "cat": "wagner",
    "label": "Tessalit",
    "sub": "Former French/US drone and intelligence base near the Algerian border. Former MINUSMA camp now occupied by FAMa and Africa Corps.",
    "tier": 2,
    "date": "2013-01-30",
    "lastUpdated": "2026-03-20T00:00:00Z"
  },
  {
    "id": "konna-mali",
    "lon": -3.88,
    "lat": 14.97,
    "cat": "jnim",
    "label": "Konna",
    "sub": "Site of the January 10, 2013 jihadist advance that triggered Operation Serval. Amadou Koufa briefly declared 'Sultan of Konna.' Retaken by FAMa/French January 17, 2013.",
    "tier": 2,
    "date": "2013-01-10",
    "lastUpdated": "2026-03-20T00:00:00Z"
  },
  {
    "id": "sevare-mali",
    "lon": -4.10,
    "lat": 14.59,
    "cat": "un-peacekeeping",
    "label": "Sévaré",
    "sub": "Key airfield 70 km south of Konna; the only military-capable airport outside Bamako. JNIM's capture of Konna in January 2013 put Sévaré within striking distance, triggering France's emergency intervention.",
    "tier": 2,
    "date": "2013-01-10",
    "lastUpdated": "2026-03-20T00:00:00Z"
  },
  {
    "id": "diabaly-mali",
    "lon": -5.77,
    "lat": 14.18,
    "cat": "jnim",
    "label": "Diabaly",
    "sub": "Second jihadist axis of advance in January 2013. MUJAO forces captured Diabaly before being halted by French airstrikes. Its fall threatened the strategic Ségou-Bamako corridor.",
    "tier": 2,
    "date": "2013-01-14",
    "lastUpdated": "2026-03-20T00:00:00Z"
  },
  {
    "id": "moura-mali",
    "lon": -4.37,
    "lat": 14.42,
    "cat": "wagner",
    "label": "Moura",
    "sub": "Site of the March 27–31, 2022 Moura massacre. FAMa and Wagner forces killed at least 500 civilians according to UN OHCHR. The single worst atrocity of the Sahel conflict. Malian junta blocked investigation.",
    "tier": 1,
    "date": "2022-03-27",
    "lastUpdated": "2026-03-20T00:00:00Z"
  },
  {
    "id": "aguelhok-mali",
    "lon": 0.97,
    "lat": 19.47,
    "cat": "jnim",
    "label": "Aguelhok",
    "sub": "Site of January 24, 2012 massacre of ~82 Malian soldiers by MNLA and Ansar Dine. Former MINUSMA camp. Now under FAMa/Africa Corps control.",
    "tier": 2,
    "date": "2012-01-24",
    "lastUpdated": "2026-03-20T00:00:00Z"
  },
  {
    "id": "kati-garrison-mali",
    "lon": -8.07,
    "lat": 12.75,
    "cat": "coup",
    "label": "Kati Garrison",
    "sub": "Mali's largest military garrison, 15 km from Bamako. Site of the March 2012 mutiny that launched Sanogo's coup. JNIM VBIED attack September 17, 2024 — first strike on the Bamako area in the war.",
    "tier": 1,
    "date": "2012-03-22",
    "lastUpdated": "2026-03-20T00:00:00Z"
  },
  {
    "id": "ogossagou-mali",
    "lon": -3.80,
    "lat": 14.20,
    "cat": "jnim",
    "label": "Ogossagou",
    "sub": "Fulani village in Mopti Region. Site of March 23, 2019 Ogossagou massacre — ~160 Fulani civilians killed by Dogon hunters' militia (Dan Nan Ambassagou). Worst inter-communal atrocity in modern Malian history.",
    "tier": 2,
    "date": "2019-03-23",
    "lastUpdated": "2026-03-20T00:00:00Z"
  },
  {
    "id": "tongo-tongo-niger",
    "lon": 3.32,
    "lat": 15.47,
    "cat": "isgs",
    "label": "Tongo Tongo",
    "sub": "Village in Niger's Tillabéri Region. Site of October 4, 2017 ISGS ambush that killed 4 US Special Forces soldiers and 4 Nigerien troops — the largest US combat loss in Africa since Somalia 1993.",
    "tier": 2,
    "date": "2017-10-04",
    "lastUpdated": "2026-03-20T00:00:00Z"
  },
  {
    "id": "inates-niger",
    "lon": 2.95,
    "lat": 14.95,
    "cat": "isgs",
    "label": "Inates",
    "sub": "Nigerien military camp in Tillabéri Region. Site of December 10, 2019 ISGS assault killing 71 soldiers — the deadliest single attack in Niger's military history. Prompted ECOWAS emergency summit.",
    "tier": 2,
    "date": "2019-12-10",
    "lastUpdated": "2026-03-20T00:00:00Z"
  },
  {
    "id": "tillaberi-region-niger",
    "lon": 2.50,
    "lat": 14.50,
    "cat": "isgs",
    "label": "Tillabéri Region",
    "sub": "Northwestern Niger; IS-Sahel / ISGS operational heartland. Borders the Liptako-Gourma tri-border zone. Sustained attacks on military bases 2017–present. US Air Base 101 in nearby Niamey provided drone coverage until 2024.",
    "tier": 2,
    "date": "2017-01-01",
    "lastUpdated": "2026-03-20T00:00:00Z"
  },
  {
    "id": "liptako-gourma-triborder",
    "lon": 0.80,
    "lat": 14.80,
    "cat": "isgs",
    "label": "Liptako-Gourma (Tri-Border)",
    "sub": "Mali-Niger-Burkina Faso border zone. Historical ISGS stronghold and most violent area of the Sahel conflict. Hundreds of attacks annually; estimated thousands of civilians killed 2017–2024.",
    "tier": 2,
    "date": "2016-10-01",
    "zoneRadius": 200,
    "lastUpdated": "2026-03-20T00:00:00Z"
  },
  {
    "id": "djibo-burkina",
    "lon": -1.63,
    "lat": 14.10,
    "cat": "jnim",
    "label": "Djibo",
    "sub": "Provincial capital in Burkina Faso's Sahel Region. Effectively besieged by JNIM since 2022; resupply only by air. Symbol of state collapse in northern Burkina Faso.",
    "tier": 2,
    "date": "2022-01-01",
    "lastUpdated": "2026-03-20T00:00:00Z"
  },
  {
    "id": "dori-burkina",
    "lon": 0.03,
    "lat": 14.03,
    "cat": "jnim",
    "label": "Dori",
    "sub": "Capital of Burkina Faso's Sahel Region. Hub of JNIM activity in northeastern Burkina. Periodic blockades and road ambushes have isolated surrounding communities.",
    "tier": 2,
    "date": "2019-01-01",
    "lastUpdated": "2026-03-20T00:00:00Z"
  },
  {
    "id": "kaya-burkina",
    "lon": -1.09,
    "lat": 13.09,
    "cat": "jnim",
    "label": "Kaya",
    "sub": "Key logistics hub in Burkina Faso's Centre-Nord Region. JNIM convoy ambushes on the Ouagadougou-Kaya-Dori road have blocked humanitarian and military resupply to the north since 2022.",
    "tier": 2,
    "date": "2022-01-01",
    "lastUpdated": "2026-03-20T00:00:00Z"
  },
  {
    "id": "fada-ngourma-burkina",
    "lon": 0.35,
    "lat": 12.06,
    "cat": "isgs",
    "label": "Fada N'Gourma",
    "sub": "Capital of Burkina Faso's Est Region. Gateway to the W National Park zone and the JNIM/IS-Sahel operational corridor toward Benin, Togo, and Ghana.",
    "tier": 2,
    "date": "2020-01-01",
    "lastUpdated": "2026-03-20T00:00:00Z"
  },
  {
    "id": "pama-burkina",
    "lon": 1.00,
    "lat": 11.25,
    "cat": "isgs",
    "label": "Pama (W Park Area)",
    "sub": "Southern Burkina Faso near the W National Park. JNIM/IS-Sahel operating zone for attacks into northern Benin. A Benin military convoy was ambushed here, killing 54 soldiers in 2025.",
    "tier": 2,
    "date": "2021-01-01",
    "lastUpdated": "2026-03-20T00:00:00Z"
  },
  {
    "id": "boulkessi-mali",
    "lon": -3.30,
    "lat": 14.90,
    "cat": "jnim",
    "label": "Boulkessi",
    "sub": "Malian military base near the Burkina Faso border. JNIM assault June 1, 2025: 60+ FAMa killed, ~220 taken hostage, weapons and vehicles seized. Among the heaviest single-day Malian military losses.",
    "tier": 2,
    "date": "2025-06-01",
    "lastUpdated": "2026-03-20T00:00:00Z"
  },
  {
    "id": "douentza-mali",
    "lon": -2.95,
    "lat": 15.00,
    "cat": "jnim",
    "label": "Douentza",
    "sub": "Town in Mopti Region. Captured by MUJAO in September 2012, retaken by French/Malian forces in 2013. Remains a contested corridor between Mopti and Gao.",
    "tier": 2,
    "date": "2012-09-01",
    "lastUpdated": "2026-03-20T00:00:00Z"
  },
  {
    "id": "gourma-rharous-mali",
    "lon": -1.93,
    "lat": 16.89,
    "cat": "jnim",
    "label": "Gourma-Rharous",
    "sub": "Timbuktu Region cercle. Major JNIM activity zone along the Niger River corridor. Site of multiple JNIM operations blocking Timbuktu resupply since 2023.",
    "tier": 2,
    "date": "2020-01-01",
    "lastUpdated": "2026-03-20T00:00:00Z"
  },
  {
    "id": "ansongo-mali",
    "lon": 0.50,
    "lat": 15.67,
    "cat": "isgs",
    "label": "Ansongo",
    "sub": "Gao Region town on the Mali-Niger border. Contested JNIM/IS-Sahel zone. Bridge crossing for fighters between Mali and Niger. Multiple FAMa convoy ambushes 2019–2024.",
    "tier": 2,
    "date": "2019-01-01",
    "lastUpdated": "2026-03-20T00:00:00Z"
  },
  {
    "id": "hombori-mali",
    "lon": 1.69,
    "lat": 15.28,
    "cat": "wagner",
    "label": "Hombori",
    "sub": "Gao Region village. Site of July 2023 HRW-documented atrocities by Malian army and apparent Wagner fighters. New pattern of civilian killings emerged in surrounding area 2023.",
    "tier": 2,
    "date": "2023-07-01",
    "lastUpdated": "2026-03-20T00:00:00Z"
  },
  {
    "id": "gossi-mali",
    "lon": -1.24,
    "lat": 15.79,
    "cat": "un-peacekeeping",
    "label": "Gossi",
    "sub": "Former French Barkhane base in the Gourma Region. MINUSMA camp also present. Site of documented Wagner Group incident in April 2022 when Russia staged fake 'mass grave' propaganda after French withdrawal.",
    "tier": 2,
    "date": "2014-01-01",
    "lastUpdated": "2026-03-20T00:00:00Z"
  },
  {
    "id": "anefis-mali",
    "lon": 1.72,
    "lat": 17.65,
    "cat": "wagner",
    "label": "Anéfis",
    "sub": "Staging point for the October–November 2023 FAMa/Wagner offensive toward Kidal. CSP-PSD Tuareg rebels held this town temporarily before the Wagner advance.",
    "tier": 3,
    "date": "2023-10-01",
    "lastUpdated": "2026-03-20T00:00:00Z"
  },
  {
    "id": "ber-mali",
    "lon": -2.20,
    "lat": 16.45,
    "cat": "jnim",
    "label": "Ber",
    "sub": "Village near Timbuktu on the JNIM supply-interdiction corridor. Site of repeated FAMa convoy ambushes as JNIM tightened the Timbuktu siege 2023–2024.",
    "tier": 3,
    "date": "2023-01-01",
    "lastUpdated": "2026-03-20T00:00:00Z"
  },
  {
    "id": "segou-mali",
    "lon": -6.27,
    "lat": 13.45,
    "cat": "jnim",
    "label": "Ségou",
    "sub": "Fourth-largest Malian city. Ségou Region is a major JNIM expansion zone, linking Katiba Macina operations in Mopti to growing activity in western Mali toward Senegal and Mauritania.",
    "tier": 2,
    "date": "2019-01-01",
    "lastUpdated": "2026-03-20T00:00:00Z"
  },
  {
    "id": "nara-mali",
    "lon": -7.29,
    "lat": 15.17,
    "cat": "jnim",
    "label": "Nara",
    "sub": "Mali-Mauritania border area. JNIM expanding westward into Kayes and Nara regions since 2023. Multiple attacks on gendarmerie posts and convoys. Threatens Mauritanian border security.",
    "tier": 3,
    "date": "2023-01-01",
    "lastUpdated": "2026-03-20T00:00:00Z"
  },
  {
    "id": "niafunke-mali",
    "lon": -3.98,
    "lat": 15.93,
    "cat": "jnim",
    "label": "Niafunké",
    "sub": "Timbuktu Region town. Birthplace of Amadou Koufa (from nearby Saraféré). Fulani pastoral recruitment heartland for Katiba Macina. Suffered repeated JNIM-aligned blockades of market access.",
    "tier": 3,
    "date": "2015-01-01",
    "lastUpdated": "2026-03-20T00:00:00Z"
  },
  {
    "id": "ouahigouya-burkina",
    "lon": -2.42,
    "lat": 13.57,
    "cat": "jnim",
    "label": "Ouahigouya",
    "sub": "Capital of Burkina Faso's Nord Region. JNIM expansion zone in northern Burkina Faso. Supply routes to surrounding villages repeatedly ambushed; surrounding schools closed.",
    "tier": 3,
    "date": "2020-01-01",
    "lastUpdated": "2026-03-20T00:00:00Z"
  },
  {
    "id": "titao-burkina",
    "lon": -2.07,
    "lat": 13.77,
    "cat": "jnim",
    "label": "Titao",
    "sub": "Loroum Province, Burkina Faso. JNIM and IS-Sahel activities in this corridor connecting the Sahel and Nord regions. Multiple VDP and FAB ambushes 2021–2024.",
    "tier": 3,
    "date": "2021-01-01",
    "lastUpdated": "2026-03-20T00:00:00Z"
  },
  {
    "id": "ouallam-niger",
    "lon": 2.31,
    "lat": 14.33,
    "cat": "isgs",
    "label": "Ouallam",
    "sub": "Tillabéri Region, Niger. IS-Sahel attack corridor toward Niamey. Multiple military base attacks and civilian massacres in surrounding area 2019–2024.",
    "tier": 2,
    "date": "2019-01-01",
    "lastUpdated": "2026-03-20T00:00:00Z"
  },
  {
    "id": "diffa-niger",
    "lon": 12.61,
    "lat": 13.32,
    "cat": "isgs",
    "label": "Diffa",
    "sub": "Niger's southeast region. Secondary threat zone — Boko Haram / ISWAP activities from Lake Chad basin, overlapping with IS-Sahel expansion eastward.",
    "tier": 2,
    "date": "2015-01-01",
    "lastUpdated": "2026-03-20T00:00:00Z"
  },
  {
    "id": "agadez-niger",
    "lon": 7.99,
    "lat": 16.97,
    "cat": "un-peacekeeping",
    "label": "Agadez",
    "sub": "Niger's major northern city. Site of US Air Base 201 — a $110M drone and intelligence facility from which Reaper drones tracked JNIM and ISGS leadership. US completed withdrawal August 2024.",
    "tier": 2,
    "date": "2016-01-01",
    "lastUpdated": "2026-03-20T00:00:00Z"
  },
  {
    "id": "tahoua-niger",
    "lon": 5.27,
    "lat": 14.88,
    "cat": "isgs",
    "label": "Tahoua",
    "sub": "Central Niger region experiencing spillover IS-Sahel violence from Tillabéri. IS-Sahel expansion corridor toward Tahoua documented by ACLED from 2021.",
    "tier": 3,
    "date": "2021-01-01",
    "lastUpdated": "2026-03-20T00:00:00Z"
  },
  {
    "id": "tera-niger",
    "lon": 0.75,
    "lat": 14.01,
    "cat": "isgs",
    "label": "Téra",
    "sub": "Tillabéri Region town on the Mali-Niger border. ISGS / IS-Sahel activity zone. Site of December 2021 attack on security force and civilians during an AU democracy march (69+ killed).",
    "tier": 2,
    "date": "2021-12-01",
    "lastUpdated": "2026-03-20T00:00:00Z"
  },
  {
    "id": "ndjamena-chad",
    "lon": 15.04,
    "lat": 12.11,
    "cat": "un-peacekeeping",
    "label": "N'Djamena",
    "sub": "Capital of Chad; Operation Barkhane's permanent headquarters 2014–2022. French forces still present (reduced to ~1,000). Hub for remaining French regional operations in Africa.",
    "tier": 1,
    "date": "2014-08-01",
    "lastUpdated": "2026-03-20T00:00:00Z"
  },
  {
    "id": "wagner-compound-bamako",
    "lon": -7.94,
    "lat": 12.62,
    "cat": "wagner",
    "label": "Africa Corps Compound (Bamako)",
    "sub": "Russia's Africa Corps (formerly Wagner) permanent compound in Bamako. Satellite imagery confirms expanded facilities. Main coordination base for ~1,000-1,500 Africa Corps personnel in Mali.",
    "tier": 3,
    "date": "2021-12-01",
    "lastUpdated": "2026-03-20T00:00:00Z"
  },
  {
    "id": "bobo-dioulasso-burkina",
    "lon": -4.30,
    "lat": 11.18,
    "cat": "jnim",
    "label": "Bobo-Dioulasso",
    "sub": "Burkina Faso's second city; economic hub. JNIM expansion threatening approaches to Bobo-Dioulasso from the north and west. Multiple attacks on surrounding villages 2022–2024.",
    "tier": 2,
    "date": "2022-01-01",
    "lastUpdated": "2026-03-20T00:00:00Z"
  },
  {
    "id": "kongoussi-burkina",
    "lon": -1.53,
    "lat": 13.32,
    "cat": "jnim",
    "label": "Kongoussi",
    "sub": "Centre-Nord Region, Burkina Faso. JNIM attacks on gendarmerie and villages in Kongoussi area; gateway town on the deteriorating Kaya-Dori security corridor.",
    "tier": 3,
    "date": "2021-01-01",
    "lastUpdated": "2026-03-20T00:00:00Z"
  },
  {
    "id": "po-burkina",
    "lon": -1.15,
    "lat": 11.17,
    "cat": "jnim",
    "label": "Pô",
    "sub": "Southern Burkina Faso near Ghana border. JNIM expansion southward threatening the Ghana and Togo borders. Attacks on gendarmerie posts 2023–2024.",
    "tier": 3,
    "date": "2023-01-01",
    "lastUpdated": "2026-03-20T00:00:00Z"
  },
  {
    "id": "macina-ségou-mali",
    "lon": -5.35,
    "lat": 13.96,
    "cat": "jnim",
    "label": "Macina",
    "sub": "Historical name for central Mali; birthplace of the 19th-century Fulani Macina Empire that Amadou Koufa invokes as ideological justification for Katiba Macina. JNIM expansion corridor from Ségou to Mopti.",
    "tier": 3,
    "date": "2015-01-01",
    "lastUpdated": "2026-03-20T00:00:00Z"
  },
  {
    "id": "bankass-mali",
    "lon": -3.52,
    "lat": 14.08,
    "cat": "jnim",
    "label": "Bankass",
    "sub": "Mopti Region cercle near the Dogon Country and Burkina Faso border. Intense JNIM/Katiba Macina activity; multiple attacks on security posts 2018–2024.",
    "tier": 3,
    "date": "2018-01-01",
    "lastUpdated": "2026-03-20T00:00:00Z"
  },
  {
    "id": "djenne-mali",
    "lon": -4.55,
    "lat": 13.90,
    "cat": "jnim",
    "label": "Djenné",
    "sub": "Ancient UNESCO World Heritage city in Mopti Region; cercle encompassing the Moura massacre site. JNIM controls surrounding rural areas; Djenné itself has been under threat since 2018.",
    "tier": 2,
    "date": "2018-01-01",
    "lastUpdated": "2026-03-20T00:00:00Z"
  },
  {
    "id": "bourem-mali",
    "lon": 0.36,
    "lat": 16.96,
    "cat": "jnim",
    "label": "Bourem",
    "sub": "Gao Region town on the Niger River. JNIM and IS-Sahel both active in Bourem cercle. Transit corridor for armed groups between Gao and Kidal regions.",
    "tier": 3,
    "date": "2018-01-01",
    "lastUpdated": "2026-03-20T00:00:00Z"
  },
  {
    "id": "tenenkou-mali",
    "lon": -4.93,
    "lat": 14.36,
    "cat": "jnim",
    "label": "Tenenkou",
    "sub": "Mopti Region cercle. Core Katiba Macina territory; Fulani pastoral community stronghold for JNIM recruitment. Multiple attacks on security forces 2016–2024.",
    "tier": 3,
    "date": "2016-01-01",
    "lastUpdated": "2026-03-20T00:00:00Z"
  },
  {
    "id": "nampala-mali",
    "lon": -5.79,
    "lat": 15.22,
    "cat": "jnim",
    "label": "Nampala",
    "sub": "Ségou Region border town near Mauritania. JNIM base camp area. Malian military base at Nampala repeatedly attacked 2016–2020; 25+ soldiers killed in single 2016 attack.",
    "tier": 3,
    "date": "2016-01-01",
    "lastUpdated": "2026-03-20T00:00:00Z"
  },
  {
    "id": "nioro-du-sahel-mali",
    "lon": -9.59,
    "lat": 15.23,
    "cat": "jnim",
    "label": "Nioro du Sahel",
    "sub": "Kayes Region town near the Mauritanian border. JNIM westward expansion front. Attacks on gendarmerie and civilians increased 2023–2025 as JNIM expanded toward Senegal.",
    "tier": 3,
    "date": "2023-01-01",
    "lastUpdated": "2026-03-20T00:00:00Z"
  },
  {
    "id": "mondoro-mali",
    "lon": -3.58,
    "lat": 14.56,
    "cat": "jnim",
    "label": "Mondoro",
    "sub": "Mopti Region near Burkina Faso border. Major JNIM transit and logistics base for cross-border operations between central Mali and northern Burkina Faso.",
    "tier": 3,
    "date": "2019-01-01",
    "lastUpdated": "2026-03-20T00:00:00Z"
  },
  {
    "id": "minusma-hq-bamako",
    "lon": -7.98,
    "lat": 12.65,
    "cat": "un-peacekeeping",
    "label": "MINUSMA HQ (Former)",
    "sub": "MINUSMA headquarters in Bamako. Mission operated July 2013–December 2023. Largest UN peacekeeping mission budget in history (~$1.2B/year). 304 total deaths including 175 from hostile acts.",
    "tier": 1,
    "date": "2013-07-01",
    "lastUpdated": "2026-03-20T00:00:00Z"
  },
  {
    "id": "ougadougou-splendid-hotel",
    "lon": -1.54,
    "lat": 12.37,
    "cat": "jnim",
    "label": "Splendid Hotel Attack Site",
    "sub": "Central Ouagadougou. Site of January 15, 2016 AQIM/al-Mourabitoun attack killing 30 people — Burkina Faso's worst terrorist atrocity at the time and signal of jihadist southward expansion.",
    "tier": 2,
    "date": "2016-01-15",
    "lastUpdated": "2026-03-20T00:00:00Z"
  },
  {
    "id": "radisson-bamako-attack-site",
    "lon": -7.97,
    "lat": 12.64,
    "cat": "jnim",
    "label": "Radisson Blu Attack Site",
    "sub": "Bamako. Site of November 20, 2015 AQIM/al-Mourabitoun hotel siege killing 22 people including diplomats and UN staff. Demonstrated jihadist ability to strike the capital.",
    "tier": 2,
    "date": "2015-11-20",
    "lastUpdated": "2026-03-20T00:00:00Z"
  },
  {
    "id": "diré-mali",
    "lon": -3.39,
    "lat": 16.27,
    "cat": "jnim",
    "label": "Diré",
    "sub": "Timbuktu Region town on the Niger River. JNIM transit corridor between Timbuktu and western Mali. Supply route interdiction operations cut off Diré from 2023.",
    "tier": 3,
    "date": "2022-01-01",
    "lastUpdated": "2026-03-20T00:00:00Z"
  },
  {
    "id": "nondin-soro-burkina",
    "lon": -3.45,
    "lat": 14.30,
    "cat": "coup",
    "label": "Nondin / Soro",
    "sub": "Villages in Burkina Faso, Sissili Province. Site of February 25, 2024 massacre of 223 civilians (including 56 children) by Burkinabè forces and VDP militias — called potential crimes against humanity by HRW.",
    "tier": 2,
    "date": "2024-02-25",
    "lastUpdated": "2026-03-20T00:00:00Z"
  },
  {
    "id": "gao-barkhane-base",
    "lon": -0.08,
    "lat": 16.25,
    "cat": "un-peacekeeping",
    "label": "Camp Firgun (Former Barkhane Base)",
    "sub": "France's main operational base for Operation Barkhane in Mali, at Gao airport. Transferred to MINUSMA and FAMa following France's 2022 withdrawal. Now used by FAMa and Africa Corps.",
    "tier": 1,
    "date": "2014-08-01",
    "lastUpdated": "2026-03-20T00:00:00Z"
  },
  {
    "id": "taoudenit-mali",
    "lon": -3.98,
    "lat": 22.67,
    "cat": "wagner",
    "label": "Taoudenni",
    "sub": "Remote northern Mali region with significant gold deposits. FAMa and Africa Corps extending control northward after Kidal capture. Previously inaccessible state authority zone.",
    "tier": 3,
    "date": "2024-01-01",
    "lastUpdated": "2026-03-20T00:00:00Z"
  },
  {
    "id": "menaka-is-sahel-hq",
    "lon": 2.02,
    "lat": 15.91,
    "cat": "isgs",
    "label": "Ménaka (IS-Sahel Stronghold)",
    "sub": "IS-Sahel province administrative center. Adnan Abu Walid al-Sahrawi's primary operational zone before his 2021 killing. Massive civilian displacement from IS-Sahel ethnic targeting campaigns 2019–2022.",
    "tier": 1,
    "date": "2016-10-01",
    "lastUpdated": "2026-03-20T00:00:00Z"
  },
  {
    "id": "faramana-burkina",
    "lon": -4.71,
    "lat": 11.64,
    "cat": "jnim",
    "label": "Faramana",
    "sub": "Burkina Faso-Mali border crossing. JNIM use this corridor to coordinate operations between central Mali and western Burkina Faso. Customs post repeatedly attacked 2022–2024.",
    "tier": 3,
    "date": "2022-01-01",
    "lastUpdated": "2026-03-20T00:00:00Z"
  },
  {
    "id": "bourzanga-burkina",
    "lon": -1.43,
    "lat": 13.65,
    "cat": "jnim",
    "label": "Bourzanga",
    "sub": "Bam Province, Burkina Faso. Site of a January 2023 VDP convoy massacre by JNIM — among the worst single-incident civilian losses in Burkina Faso.",
    "tier": 3,
    "date": "2023-01-15",
    "lastUpdated": "2026-03-20T00:00:00Z"
  },
  {
    "id": "lere-mali-2012",
    "lon": -6.89,
    "lat": 15.69,
    "cat": "jnim",
    "label": "Léré",
    "sub": "Tombouctou Region town on the Mauritanian border. Site of early MNLA attacks January 2012. Targeted by French airstrikes in the first hours of Operation Serval January 11, 2013.",
    "tier": 3,
    "date": "2012-01-17",
    "lastUpdated": "2026-03-20T00:00:00Z"
  },
  {
    "id": "sokolo-mali",
    "lon": -6.11,
    "lat": 14.73,
    "cat": "jnim",
    "label": "Sokolo",
    "sub": "Ségou Region, Mali. JNIM attacks on Sokolo gendarmerie multiple times 2019–2023. Major Katiba Macina recruitment and attack corridor between Mopti and Ségou regions.",
    "tier": 3,
    "date": "2019-01-01",
    "lastUpdated": "2026-03-20T00:00:00Z"
  }
]
