[
  {
    "id": "culiacan-city-center",
    "lon": -107.394,
    "lat": 24.800,
    "cat": "clash",
    "label": "Culiacán — Primary Battleground",
    "sub": "State capital and cartel civil war epicenter. Home to 1 million residents, the city has recorded 2,400+ conflict-related killings since September 2024, with firefights erupting near schools and hospitals.",
    "tier": 2,
    "date": "2024-09-09",
    "showLabel": true,
    "lastUpdated": "2026-03-20T00:00:00Z"
  },
  {
    "id": "la-campina-neighborhood",
    "lon": -107.372,
    "lat": 24.812,
    "cat": "chapitos",
    "label": "La Campiña — Chapitos Stronghold",
    "sub": "East Culiacán neighborhood and key Chapitos base. Site of the September 9, 2024 opening clash when Mexican Army troops encountered armed civilians, killing a sergeant and triggering the civil war.",
    "tier": 2,
    "date": "2024-09-09",
    "lastUpdated": "2026-03-20T00:00:00Z"
  },
  {
    "id": "tierra-blanca-neighborhood",
    "lon": -107.401,
    "lat": 24.818,
    "cat": "clash",
    "label": "Tierra Blanca — Repeated Clashes",
    "sub": "Culiacán neighborhood and persistent flashpoint. Site of June 15–16, 2025 battles where La Mayiza used a .50-caliber rifle to destroy a Chapitos armored truck, killing at least 3.",
    "tier": 2,
    "date": "2025-06-15",
    "lastUpdated": "2026-03-20T00:00:00Z"
  },
  {
    "id": "costa-rica-culiacan",
    "lon": -107.389,
    "lat": 24.782,
    "cat": "clash",
    "label": "Costa Rica — Narco-Messages",
    "sub": "Culiacán neighborhood where bodies with faction narco-messages were found January 6, 2025. La Mayiza-affiliated operatives claimed responsibility for killings of Chapitos gunmen.",
    "tier": 2,
    "date": "2025-01-06",
    "lastUpdated": "2026-03-20T00:00:00Z"
  },
  {
    "id": "huertos-del-pedregal",
    "lon": -107.351,
    "lat": 24.852,
    "cat": "clash",
    "label": "Huertos del Pedregal — Mayo's Kidnapping Site",
    "sub": "Ranch on the outskirts of Culiacán where El Mayo Zambada was allegedly ambushed on July 25, 2024. Federal forensic evidence found blood and ballistic evidence matching El Mayo's account, contradicting the official state narrative.",
    "tier": 1,
    "date": "2024-07-25",
    "lastUpdated": "2026-03-20T00:00:00Z"
  },
  {
    "id": "culiacan-airport",
    "lon": -107.474,
    "lat": 24.765,
    "cat": "checkpoint",
    "label": "Culiacán International Airport",
    "sub": "Key transport hub used by cartel leadership and under contested control. Military forces maintain a checkpoint presence. Airport flights disrupted multiple times during peak violence in late 2024.",
    "tier": 2,
    "date": "2024-09-10",
    "lastUpdated": "2026-03-20T00:00:00Z"
  },
  {
    "id": "los-mochis-city",
    "lon": -108.990,
    "lat": 25.790,
    "cat": "mayos",
    "label": "Los Mochis — La Mayiza Northern HQ",
    "sub": "Major northern Sinaloa city and La Mayiza stronghold. Port of Topolobampo nearby provides maritime drug export options. La Mayiza has maintained firm control throughout the conflict.",
    "tier": 2,
    "date": "2024-09-15",
    "showLabel": true,
    "lastUpdated": "2026-03-20T00:00:00Z"
  },
  {
    "id": "mazatlan-city",
    "lon": -106.421,
    "lat": 23.231,
    "cat": "clash",
    "label": "Mazatlán — Tourist Hub Hit by Violence",
    "sub": "Sinaloa's largest Pacific coast tourist city. Recorded 95 homicides January–September 2025, a 227% increase over 2024. Both factions contest control of the city's lucrative criminal plaza.",
    "tier": 2,
    "date": "2024-10-01",
    "showLabel": true,
    "lastUpdated": "2026-03-20T00:00:00Z"
  },
  {
    "id": "badiraguato-municipality",
    "lon": -107.570,
    "lat": 25.370,
    "cat": "chapitos",
    "label": "Badiraguato — El Chapo's Homeland",
    "sub": "El Chapo's birthplace and historically a sacred cartel sanctuary. Hit by drone attacks starting September 16, 2024. Roughly 100 families (450 people) displaced. Mayor confirmed population dropped nearly 30%.",
    "tier": 2,
    "date": "2024-09-16",
    "lastUpdated": "2026-03-20T00:00:00Z"
  },
  {
    "id": "la-tuna-village",
    "lon": -107.515,
    "lat": 25.582,
    "cat": "chapitos",
    "label": "La Tuna — El Chapo's Birthplace",
    "sub": "Tiny village in Badiraguato municipality where Joaquín 'El Chapo' Guzmán was born. Symbolic stronghold for the Chapitos faction. Heavily fortified during the conflict; civilian population has largely fled.",
    "tier": 3,
    "date": "2024-09-20",
    "lastUpdated": "2026-03-20T00:00:00Z"
  },
  {
    "id": "bacacoragua-drone-attacks",
    "lon": -107.630,
    "lat": 25.450,
    "cat": "clash",
    "label": "Bacacoragua — Drone Attack Site",
    "sub": "Community in Badiraguato municipality struck by armed drone attacks in September 2024. Electricity cut and roads blocked. Residents fled en masse, making it one of the first mountain communities forcibly abandoned in the conflict.",
    "tier": 2,
    "date": "2024-09-16",
    "lastUpdated": "2026-03-20T00:00:00Z"
  },
  {
    "id": "guasave-municipality",
    "lon": -108.460,
    "lat": 25.560,
    "cat": "mayos",
    "label": "Guasave — Chapo Isidro Territory",
    "sub": "Northern Sinaloa municipality and stronghold of Fausto 'Chapo Isidro' Meza Flores and his Vitache Special Forces, who joined La Mayiza. Site of the December 2024 record fentanyl seizure of 20 million pills.",
    "tier": 2,
    "date": "2024-10-01",
    "lastUpdated": "2026-03-20T00:00:00Z"
  },
  {
    "id": "ahome-municipality",
    "lon": -108.930,
    "lat": 25.920,
    "cat": "mayos",
    "label": "Ahome — Record Drug Bust",
    "sub": "Northern Sinaloa municipality adjacent to Los Mochis. Site of Mexico's largest-ever fentanyl seizure in December 2024 (20 million pills), conducted jointly with Guasave. Under La Mayiza's operational umbrella.",
    "tier": 2,
    "date": "2024-12-01",
    "lastUpdated": "2026-03-20T00:00:00Z"
  },
  {
    "id": "el-fuerte-municipality",
    "lon": -108.620,
    "lat": 26.420,
    "cat": "chapitos",
    "label": "El Fuerte — Northern Chapitos Territory",
    "sub": "Far northern Sinaloa municipality reported under Los Chapitos control during the territorial split crystallized by late 2024. Historic colonial town serving as a strategic gateway to Sonora.",
    "tier": 3,
    "date": "2024-10-15",
    "lastUpdated": "2026-03-20T00:00:00Z"
  },
  {
    "id": "mocorito-municipality",
    "lon": -107.920,
    "lat": 25.480,
    "cat": "chapitos",
    "label": "Mocorito — Chapitos-Controlled",
    "sub": "Central Sinaloa municipality reported under Los Chapitos' control during the territorial split. Lies between the Sierra Madre foothills and the coastal plain, making it a key logistical corridor.",
    "tier": 3,
    "date": "2024-10-15",
    "lastUpdated": "2026-03-20T00:00:00Z"
  },
  {
    "id": "angostura-municipality",
    "lon": -107.990,
    "lat": 25.350,
    "cat": "chapitos",
    "label": "Angostura — Chapitos Territory",
    "sub": "Municipality in north-central Sinaloa under Los Chapitos control. Angostura sits along the Sinaloa River agricultural plain and is strategically important for cartel logistics and revenue from local extortion.",
    "tier": 3,
    "date": "2024-10-15",
    "lastUpdated": "2026-03-20T00:00:00Z"
  },
  {
    "id": "navolato-municipality",
    "lon": -108.110,
    "lat": 24.770,
    "cat": "chapitos",
    "label": "Navolato — Gateway to Culiacán Bay",
    "sub": "Municipality directly west of Culiacán, reported under Los Chapitos control. Access to the Pacific Coast via Altata beach area. Historically important for maritime drug smuggling operations.",
    "tier": 3,
    "date": "2024-10-15",
    "lastUpdated": "2026-03-20T00:00:00Z"
  },
  {
    "id": "san-ignacio-municipality",
    "lon": -106.920,
    "lat": 23.520,
    "cat": "mayos",
    "label": "San Ignacio — La Mayiza Zone",
    "sub": "Southern Sinaloa municipality reported under La Mayiza control. Located in rugged sierra terrain, San Ignacio provides a buffer between Mazatlán and the mountain drug cultivation zones.",
    "tier": 3,
    "date": "2024-10-20",
    "lastUpdated": "2026-03-20T00:00:00Z"
  },
  {
    "id": "elota-municipality",
    "lon": -107.420,
    "lat": 24.020,
    "cat": "mayos",
    "label": "Elota — La Mayiza Southern Territory",
    "sub": "Central-southern Sinaloa municipality under La Mayiza control. Part of the zone securing the faction's access to southern coastal trafficking corridors toward Nayarit and Jalisco.",
    "tier": 3,
    "date": "2024-10-20",
    "lastUpdated": "2026-03-20T00:00:00Z"
  },
  {
    "id": "concordia-municipality",
    "lon": -106.070,
    "lat": 23.280,
    "cat": "clash",
    "label": "Concordia — Highest Displacement Count",
    "sub": "Southern Sinaloa municipality with the highest number of displaced families in the conflict: 261 families by mid-2025. Sites including El Palmito and El Espinal saw some of the war's worst rural fighting.",
    "tier": 2,
    "date": "2024-09-20",
    "lastUpdated": "2026-03-20T00:00:00Z"
  },
  {
    "id": "el-palmito-concordia",
    "lon": -106.085,
    "lat": 23.200,
    "cat": "clash",
    "label": "El Palmito — Evacuated Sept 2024",
    "sub": "Rural community in Concordia municipality. Approximately 180–200 residents evacuated in September 2024 and relocated to Mazatlán. One of the first mass civilian evacuations of the conflict.",
    "tier": 2,
    "date": "2024-09-15",
    "lastUpdated": "2026-03-20T00:00:00Z"
  },
  {
    "id": "el-espinal-concordia",
    "lon": -106.100,
    "lat": 23.250,
    "cat": "clash",
    "label": "El Espinal — Burned Vehicles Jan 2025",
    "sub": "Community in Concordia municipality where heavy La Chapiza vs La Mayiza fighting was documented January 4, 2025, with multiple burned-out vehicles photographed. Repeated clashes have effectively depopulated the area.",
    "tier": 2,
    "date": "2025-01-04",
    "lastUpdated": "2026-03-20T00:00:00Z"
  },
  {
    "id": "cosala-municipality",
    "lon": -106.690,
    "lat": 24.410,
    "cat": "clash",
    "label": "Cosalá — Multi-Faction Contested",
    "sub": "Central Sinaloa municipality with 238 displaced families recorded by mid-2025. Unique for reportedly having more than one faction controlling territory simultaneously, creating a patchwork of control that makes civilian life untenable.",
    "tier": 2,
    "date": "2024-10-01",
    "lastUpdated": "2026-03-20T00:00:00Z"
  },
  {
    "id": "rosario-municipality",
    "lon": -105.860,
    "lat": 22.990,
    "cat": "mayos",
    "label": "Rosario — Southern Sinaloa",
    "sub": "Southernmost significant Sinaloa municipality. Displacement reported throughout the conflict. The municipality borders Nayarit state, making it strategically important for southward trafficking routes.",
    "tier": 3,
    "date": "2024-10-15",
    "lastUpdated": "2026-03-20T00:00:00Z"
  },
  {
    "id": "surutato-sierra",
    "lon": -107.400,
    "lat": 25.650,
    "cat": "mayos",
    "label": "Surutato — La Mayiza Sierra Control",
    "sub": "Mountain community in the Sierra Madre Occidental reported taken by La Mayiza on May 19, 2025. The high-altitude region is critical for poppy cultivation, clandestine meth labs, and cartel leadership refuge.",
    "tier": 3,
    "date": "2025-05-19",
    "lastUpdated": "2026-03-20T00:00:00Z"
  },
  {
    "id": "los-sitios-sierra",
    "lon": -107.380,
    "lat": 25.700,
    "cat": "mayos",
    "label": "Los Sitios — Sierra Cleared by Mayiza",
    "sub": "Remote Sierra Madre community whose control was seized by La Mayiza in May 2025 operations, part of a broader sweep of mountain territory previously held or contested by Los Chapitos.",
    "tier": 3,
    "date": "2025-05-19",
    "lastUpdated": "2026-03-20T00:00:00Z"
  },
  {
    "id": "potrerillos-del-norote",
    "lon": -106.050,
    "lat": 24.000,
    "cat": "clash",
    "label": "Potrerillos del Norote — Body Display",
    "sub": "Town in central Sinaloa where a body was found hanging from arches on March 3, 2025, with a narco-message. The incident is part of a pattern of psychological warfare body displays occurring across the state.",
    "tier": 2,
    "date": "2025-03-03",
    "lastUpdated": "2026-03-20T00:00:00Z"
  },
  {
    "id": "culiacan-displaced-camp",
    "lon": -107.410,
    "lat": 24.750,
    "cat": "clash",
    "label": "Culiacán Landfill Displacement Camp",
    "sub": "Improvised settlement near the Culiacán municipal landfill where displaced families from rural Sinaloa established emergency camps. Serious shortages of food, water, and medical care documented by humanitarian organizations.",
    "tier": 3,
    "date": "2024-10-01",
    "lastUpdated": "2026-03-20T00:00:00Z"
  },
  {
    "id": "durango-border-cjng",
    "lon": -104.660,
    "lat": 24.020,
    "cat": "clash",
    "label": "Durango — CJNG Incursion Front",
    "sub": "State capital of Durango and gateway for CJNG gunmen deployed to support Los Chapitos in the Sinaloa-Durango border zone. CJNG reportedly launched offensives from Durango against La Mayiza-affiliated factions in 2025.",
    "tier": 3,
    "date": "2025-01-15",
    "lastUpdated": "2026-03-20T00:00:00Z"
  },
  {
    "id": "tamazula-durango-sinaloa-border",
    "lon": -106.970,
    "lat": 24.950,
    "cat": "clash",
    "label": "Tamazula — Sinaloa-Durango Border Fighting",
    "sub": "Municipality on the Durango side of the Sierra Madre border with Sinaloa. Site of sustained fighting between CJNG-backed Chapitos and La Mayiza, as both factions contest the Golden Triangle cultivation zones.",
    "tier": 3,
    "date": "2025-02-01",
    "lastUpdated": "2026-03-20T00:00:00Z"
  },
  {
    "id": "mazatlan-golden-zone",
    "lon": -106.430,
    "lat": 23.240,
    "cat": "clash",
    "label": "Mazatlán Zona Dorada — Tourist Strip Hit",
    "sub": "Mazatlán's tourist Golden Zone has seen proximity fighting and armed encounters as cartel factions contest the lucrative criminal plaza. Multiple shooting incidents occurred within blocks of major hotel complexes in 2025.",
    "tier": 2,
    "date": "2025-03-01",
    "lastUpdated": "2026-03-20T00:00:00Z"
  },
  {
    "id": "culiacan-military-base",
    "lon": -107.433,
    "lat": 24.790,
    "cat": "checkpoint",
    "label": "Culiacán — Third Military Region HQ",
    "sub": "Mexican Army's Third Military Region headquarters in Culiacán, the operational command for Sinaloa. New commander General Briseño Lobera was installed October 2, 2024. The base coordinates up to 14,000 soldiers deployed across Sinaloa and adjacent states.",
    "tier": 1,
    "date": "2024-10-02",
    "lastUpdated": "2026-03-20T00:00:00Z"
  },
  {
    "id": "hwy15-checkpoint-sinaloa",
    "lon": -108.200,
    "lat": 25.100,
    "cat": "checkpoint",
    "label": "Highway 15 — Cartel Checkpoint Zone",
    "sub": "Mexico's Pacific Coast Highway 15 (Culiacán to Los Mochis) is subject to cartel checkpoints where armed groups verify identities and control movement. The highway is the main north-south economic artery of Sinaloa.",
    "tier": 3,
    "date": "2024-09-10",
    "lastUpdated": "2026-03-20T00:00:00Z"
  },
  {
    "id": "hwy15-mazatlan-culiacan",
    "lon": -106.910,
    "lat": 24.080,
    "cat": "checkpoint",
    "label": "Hwy 15 (Mazatlán–Culiacán) — Contested",
    "sub": "The Mazatlán–Culiacán section of Highway 15 has seen multiple roadblocks, armed checkpoints, and ambushes by both factions. The corridor is vital for commerce but has become dangerous for civilian travelers.",
    "tier": 3,
    "date": "2024-09-15",
    "lastUpdated": "2026-03-20T00:00:00Z"
  },
  {
    "id": "sierra-madre-drug-lab-1",
    "lon": -107.350,
    "lat": 25.550,
    "cat": "lab",
    "label": "Sierra Madre — Clandestine Meth Lab",
    "sub": "Remote Sierra Madre location where Mexican authorities seized a clandestine methamphetamine laboratory in 2025. The area's isolation makes it ideal for large-scale drug synthesis. Multiple labs have been discovered and destroyed in the mountain range.",
    "tier": 1,
    "date": "2025-04-01",
    "lastUpdated": "2026-03-20T00:00:00Z"
  },
  {
    "id": "ahome-fentanyl-lab",
    "lon": -108.950,
    "lat": 25.900,
    "cat": "lab",
    "label": "Ahome — Fentanyl Processing Facility",
    "sub": "Northern Sinaloa industrial area where the December 2024 record seizure of 20 million fentanyl pills was made. Large-scale pill press and precursor chemical stockpile discovered alongside the pills.",
    "tier": 1,
    "date": "2024-12-15",
    "lastUpdated": "2026-03-20T00:00:00Z"
  },
  {
    "id": "culiacan-narco-lab-urban",
    "lon": -107.365,
    "lat": 24.795,
    "cat": "lab",
    "label": "Culiacán — Urban Fentanyl Lab Seizure",
    "sub": "Urban neighborhood lab discovered during security operations in Culiacán. Authorities found pill presses, precursor chemicals, and finished fentanyl product. Chapitos-faction labs have been identified in residential neighborhoods.",
    "tier": 1,
    "date": "2025-02-01",
    "lastUpdated": "2026-03-20T00:00:00Z"
  },
  {
    "id": "guasave-drug-lab",
    "lon": -108.470,
    "lat": 25.540,
    "cat": "lab",
    "label": "Guasave — Industrial Drug Lab",
    "sub": "Guasave municipality drug production facility seized by Mexican federal police. The area, controlled by Chapo Isidro's La Mayiza-aligned forces, has multiple known drug processing locations in agricultural outbuildings.",
    "tier": 1,
    "date": "2025-01-20",
    "lastUpdated": "2026-03-20T00:00:00Z"
  },
  {
    "id": "los-mochis-port-topolobampo",
    "lon": -109.046,
    "lat": 25.599,
    "cat": "mayos",
    "label": "Topolobampo Port — Maritime Drug Export",
    "sub": "Deep-water Pacific port near Los Mochis used by La Mayiza for maritime drug export operations. Among the most important Pacific coast export points for Sinaloa Cartel product heading to Asian and South American markets.",
    "tier": 3,
    "date": "2024-09-01",
    "lastUpdated": "2026-03-20T00:00:00Z"
  },
  {
    "id": "choix-municipality",
    "lon": -108.280,
    "lat": 26.710,
    "cat": "chapitos",
    "label": "Choix — Sinaloa-Chihuahua Border",
    "sub": "Far northern Sinaloa municipality on the border with Chihuahua. Los Chapitos have maintained influence in this remote border zone, which provides access to cartel operations in Chihuahua state.",
    "tier": 3,
    "date": "2024-10-01",
    "lastUpdated": "2026-03-20T00:00:00Z"
  },
  {
    "id": "salvador-alvarado-guamuchil",
    "lon": -107.920,
    "lat": 25.460,
    "cat": "chapitos",
    "label": "Guamúchil — Regional Market City",
    "sub": "Salvador Alvarado municipality and commercial hub of central-northern Sinaloa. Los Chapitos have used the city's commercial economy for extortion revenue and money laundering operations.",
    "tier": 3,
    "date": "2024-10-15",
    "lastUpdated": "2026-03-20T00:00:00Z"
  },
  {
    "id": "escuinapa-southern-sinaloa",
    "lon": -105.780,
    "lat": 22.840,
    "cat": "mayos",
    "label": "Escuinapa — Southern Gateway",
    "sub": "Southernmost Sinaloa municipality near the Nayarit border. Under La Mayiza control and important for southward drug trafficking toward Guadalajara. Shrimp and agriculture economy has been extorted by cartel operations.",
    "tier": 3,
    "date": "2024-10-20",
    "lastUpdated": "2026-03-20T00:00:00Z"
  },
  {
    "id": "mazatlan-port",
    "lon": -106.433,
    "lat": 23.198,
    "cat": "checkpoint",
    "label": "Mazatlán Port — Smuggling Hub",
    "sub": "Major Pacific port used for maritime drug exports and imports of precursor chemicals. Security forces maintain a presence but cartel infiltration of port operations has been documented.",
    "tier": 2,
    "date": "2024-09-01",
    "lastUpdated": "2026-03-20T00:00:00Z"
  },
  {
    "id": "culiacan-federal-court",
    "lon": -107.397,
    "lat": 24.808,
    "cat": "checkpoint",
    "label": "Culiacán Federal Court — Prosecutorial Hub",
    "sub": "Federal court in Culiacán handling cartel prosecutions. Multiple local commanders and financial operators from both factions have been processed here. Security is extreme due to repeated threats against prosecutors and judges.",
    "tier": 1,
    "date": "2024-09-01",
    "lastUpdated": "2026-03-20T00:00:00Z"
  },
  {
    "id": "eldorado-culiacan",
    "lon": -107.149,
    "lat": 24.297,
    "cat": "clash",
    "label": "El Dorado — Agricultural Extortion Zone",
    "sub": "Agricultural community south of Culiacán where cartel factions extort tomato, chili, and vegetable growers. Repeated confrontations between La Mayiza and Chapitos-aligned groups have disrupted the agricultural economy.",
    "tier": 3,
    "date": "2024-10-01",
    "lastUpdated": "2026-03-20T00:00:00Z"
  },
  {
    "id": "imala-municipality",
    "lon": -107.266,
    "lat": 24.978,
    "cat": "clash",
    "label": "Imala — Mountain Foothills Clash Zone",
    "sub": "Foothills community northeast of Culiacán where cartel control transitions from lowland Chapitos territories to highland contested zones. Persistent low-level fighting documented throughout 2025.",
    "tier": 3,
    "date": "2024-10-15",
    "lastUpdated": "2026-03-20T00:00:00Z"
  },
  {
    "id": "culiacan-naval-base",
    "lon": -107.447,
    "lat": 24.757,
    "cat": "checkpoint",
    "label": "Culiacán Naval Base — March 2026 Raid HQ",
    "sub": "Mexican Navy (SEMAR) base in Culiacán that coordinated the March 19, 2026 raid killing 11 and capturing plaza boss El Patas. Navy has taken an increasingly prominent role in urban countercartel operations.",
    "tier": 1,
    "date": "2026-03-19",
    "lastUpdated": "2026-03-20T00:00:00Z"
  },
  {
    "id": "villa-union-clash-site",
    "lon": -106.210,
    "lat": 23.180,
    "cat": "clash",
    "label": "Villa Unión — Previous Cartel Flashpoint",
    "sub": "Small town in southern Sinaloa near Rosario with a history of cartel violence. The conflict has extended into this area with both factions competing for control of trafficking corridors through the municipality.",
    "tier": 3,
    "date": "2024-10-15",
    "lastUpdated": "2026-03-20T00:00:00Z"
  },
  {
    "id": "badiraguato-sierra-camp",
    "lon": -107.600,
    "lat": 25.490,
    "cat": "chapitos",
    "label": "Badiraguato Sierra — Chapitos Mountain Camp",
    "sub": "Remote highland camp in Badiraguato sierra used as a staging area and refuge by Los Chapitos fighters. The rugged terrain provides natural defenses and historically has been nearly impenetrable to security forces.",
    "tier": 3,
    "date": "2024-09-20",
    "lastUpdated": "2026-03-20T00:00:00Z"
  },
  {
    "id": "culiacan-hospital-zona",
    "lon": -107.385,
    "lat": 24.794,
    "cat": "clash",
    "label": "Culiacán Hospital Zone — Combat Overflow",
    "sub": "Hospital district in central Culiacán overwhelmed by conflict casualties throughout late 2024. Physicians Without Borders documented severe hospital capacity issues during peak violence periods. Armed incidents occurred near hospital entrances.",
    "tier": 2,
    "date": "2024-10-01",
    "lastUpdated": "2026-03-20T00:00:00Z"
  },
  {
    "id": "nuevo-laredo-crossing-sinaloa-product",
    "lon": -108.770,
    "lat": 29.450,
    "cat": "checkpoint",
    "label": "Sonora Border — Fentanyl Northbound Route",
    "sub": "Sinaloa-Sonora border crossing zone used for northbound fentanyl trafficking toward the US. Disrupted independent producers relocated from Culiacán to this area after the Chapitos imposed licensing requirements on fentanyl production.",
    "tier": 3,
    "date": "2024-11-01",
    "lastUpdated": "2026-03-20T00:00:00Z"
  },
  {
    "id": "culiacan-plaza-el-patas",
    "lon": -107.408,
    "lat": 24.807,
    "cat": "mayos",
    "label": "Culiacán — El Patas Capture Site (Mar 19, 2026)",
    "sub": "Location in Culiacán where Mexican Navy forces captured Omar 'El Patas' Torres, La Mayiza's plaza boss for this sector, on March 19, 2026. Eleven people killed in the raid. Torres's daughter was released at the scene.",
    "tier": 1,
    "date": "2026-03-19",
    "lastUpdated": "2026-03-20T00:00:00Z"
  }
]
