[
  {
    "id": "tehran",
    "lon": 51.39,
    "lat": 35.69,
    "cat": "strike",
    "label": "Tehran",
    "sub": "Khamenei compound, Thar-Allah HQ, Rev. Court, IRIB, Armed Forces GS, Interior Ministry",
    "tier": 1,
    "date": "2026-02-28",
    "lastUpdated": "2026-03-06T06:21:53.605Z",
    "showLabel": true
  },
  {
    "id": "natanz",
    "lon": 51.73,
    "lat": 33.51,
    "cat": "strike",
    "label": "Natanz",
    "sub": "Nuclear enrichment facility — ground-penetrating munitions",
    "tier": 1,
    "date": "2026-02-28",
    "lastUpdated": "2026-03-06T06:21:53.605Z",
    "showLabel": true
  },
  {
    "id": "fordow",
    "lon": 51.58,
    "lat": 34.62,
    "cat": "strike",
    "label": "Fordow",
    "sub": "Underground nuclear facility — access roads and entrance hit",
    "tier": 1,
    "date": "2026-02-28",
    "lastUpdated": "2026-03-06T06:21:53.605Z"
  },
  {
    "id": "isfahan",
    "lon": 51.66,
    "lat": 32.65,
    "cat": "strike",
    "label": "Isfahan",
    "sub": "Nuclear material buildings damaged; tunnel entrances impacted",
    "tier": 1,
    "date": "2026-02-28",
    "lastUpdated": "2026-03-06T06:21:53.605Z",
    "showLabel": true
  },
  {
    "id": "minab",
    "lon": 57.07,
    "lat": 27.13,
    "cat": "strike",
    "label": "Minab",
    "sub": "School airstrike — 148–180 children killed. 200ft from IRGC base.",
    "tier": 2,
    "date": "2026-02-28",
    "lastUpdated": "2026-03-06T06:21:53.605Z"
  },
  {
    "id": "bandarabbas",
    "lon": 56.28,
    "lat": 27.18,
    "cat": "strike",
    "label": "Bandar Abbas",
    "sub": "Naval base — Jamaran-class corvette sunk (CENTCOM confirmed)",
    "tier": 1,
    "date": "2026-02-28",
    "lastUpdated": "2026-03-06T06:21:53.605Z"
  },
  {
    "id": "bushehr",
    "lon": 50.83,
    "lat": 28.97,
    "cat": "strike",
    "label": "Bushehr region",
    "sub": "IRGC tanker seizure operations. Port targeted.",
    "tier": 2,
    "date": "2026-02-28",
    "lastUpdated": "2026-03-06T06:21:53.605Z"
  },
  {
    "id": "tabriz",
    "lon": 46.3,
    "lat": 38.08,
    "cat": "strike",
    "label": "Tabriz",
    "sub": "Military infrastructure strikes reported. NW Iran.",
    "tier": 2,
    "date": "2026-02-28",
    "lastUpdated": "2026-03-06T06:21:53.605Z"
  },
  {
    "id": "shiraz",
    "lon": 52.58,
    "lat": 29.59,
    "cat": "strike",
    "label": "Shiraz",
    "sub": "Shahid Dastghaib air base + underground ballistic missile production/storage struck Mar 13. IRIAF southern Iran hub for drone/missile operations.",
    "tier": 2,
    "date": "2026-03-13",
    "lastUpdated": "2026-03-14T06:00:00.000Z"
  },
  {
    "id": "parchin",
    "lon": 51.77,
    "lat": 35.52,
    "cat": "strike",
    "label": "Parchin",
    "sub": "Suspected weapons research complex. B-2 bunker busters deployed. IAEA denied pre-strike access.",
    "tier": 1,
    "date": "2026-03-03",
    "lastUpdated": "2026-03-06T06:21:53.605Z"
  },
  {
    "id": "khorramabad",
    "lon": 48.35,
    "lat": 33.49,
    "cat": "strike",
    "label": "Khorramabad",
    "sub": "Underground ballistic missile depot. Secondary explosions lasted 4 hours.",
    "tier": 1,
    "date": "2026-03-04",
    "lastUpdated": "2026-03-06T06:21:53.605Z"
  },
  {
    "id": "chabahar",
    "lon": 60.64,
    "lat": 25.29,
    "cat": "strike",
    "label": "Chabahar",
    "sub": "Drone/missile assembly warehouse. India condemns strike near joint port project.",
    "tier": 2,
    "date": "2026-03-04",
    "lastUpdated": "2026-03-06T06:21:53.605Z"
  },
  {
    "id": "dezful",
    "lon": 48.4,
    "lat": 32.38,
    "cat": "strike",
    "label": "Dezful",
    "sub": "IRGC Ground Forces HQ and ballistic missile infrastructure. Multiple waves of strikes reported.",
    "tier": 1,
    "date": "2026-02-28",
    "lastUpdated": "2026-03-06T06:21:53.605Z"
  },
  {
    "id": "kermanshah",
    "lon": 47.06,
    "lat": 34.31,
    "cat": "strike",
    "label": "Kermanshah",
    "sub": "Airbase and missile production facility. F-15E sorties confirmed by CENTCOM.",
    "tier": 1,
    "date": "2026-02-28",
    "lastUpdated": "2026-03-06T06:21:53.605Z"
  },
  {
    "id": "semnan",
    "lon": 53.39,
    "lat": 35.57,
    "cat": "strike",
    "label": "Semnan",
    "sub": "Space launch center and ballistic missile test site. Satellite imagery shows launch pad destroyed.",
    "tier": 1,
    "date": "2026-03-01",
    "lastUpdated": "2026-03-06T06:21:53.605Z"
  },
  {
    "id": "arak",
    "lon": 49.69,
    "lat": 34.09,
    "cat": "strike",
    "label": "Arak",
    "sub": "IR-40 heavy water reactor struck Day 1. Containment dome breached, IAEA monitoring equipment disabled.",
    "tier": 1,
    "date": "2026-02-28",
    "lastUpdated": "2026-03-06T06:21:53.605Z"
  },
  {
    "id": "abadan",
    "lon": 48.3,
    "lat": 30.34,
    "cat": "strike",
    "label": "Abadan",
    "sub": "Oil refinery near Iraqi border hit. Fire lasted 3 days; 12-mile smoke plume visible from Basra.",
    "tier": 2,
    "date": "2026-02-28",
    "lastUpdated": "2026-03-06T06:21:53.605Z"
  },
  {
    "id": "birjand",
    "lon": 59.22,
    "lat": 32.87,
    "cat": "strike",
    "label": "Birjand",
    "sub": "Eastern Iran drone storage and assembly facility. MQ-9 ISR confirmed 40+ Shahed-136 airframes destroyed.",
    "tier": 2,
    "date": "2026-03-02",
    "lastUpdated": "2026-03-06T06:21:53.605Z"
  },
  {
    "id": "ahvaz",
    "lon": 48.68,
    "lat": 31.32,
    "cat": "strike",
    "label": "Ahvaz",
    "sub": "IRGC Ground Forces HQ and internal security HQ struck Mar 13. Adjacent civilian neighborhood damaged; 14 civilians killed per IRNA (Mar 1 strike). Key oil region bordering Iraq.",
    "tier": 2,
    "date": "2026-03-13",
    "lastUpdated": "2026-03-14T06:00:00.000Z"
  },
  {
    "id": "mashhad",
    "lon": 59.6,
    "lat": 36.3,
    "cat": "strike",
    "label": "Mashhad",
    "sub": "IRGC Aerospace Force HQ and ballistic missile R&D center. B-2 sortie from Diego Garcia confirmed.",
    "tier": 1,
    "date": "2026-03-02",
    "lastUpdated": "2026-03-06T06:21:53.605Z"
  },
  {
    "id": "qom",
    "lon": 50.88,
    "lat": 34.64,
    "cat": "strike",
    "label": "Qom",
    "sub": "IRGC Quds Force regional HQ. Strike hit command bunker; senior Quds officer reported killed (unconfirmed).",
    "tier": 2,
    "date": "2026-03-01",
    "lastUpdated": "2026-03-06T06:21:53.605Z"
  },
  {
    "id": "kharg_island",
    "lon": 50.33,
    "lat": 29.23,
    "cat": "strike",
    "label": "Kharg Island",
    "sub": "Iran's main oil export terminal — handles ~90% of crude exports. Initial warning strikes Mar 3; full US strike on loading infrastructure Mar 14 (Pentagon 'ramp up'). Most significant economic strike of the war.",
    "tier": 1,
    "date": "2026-03-14",
    "showLabel": true,
    "lastUpdated": "2026-03-14T06:00:00.000Z"
  },
  {
    "id": "dubai",
    "lon": 55.27,
    "lat": 25.2,
    "cat": "retaliation",
    "label": "Dubai",
    "sub": "137 missiles + 209 drones at UAE. Burj Al Arab fire, Jebel Ali Port fire. 3 killed, 58 injured.",
    "tier": 2,
    "date": "2026-02-28",
    "lastUpdated": "2026-03-06T05:57:54.619Z",
    "showLabel": true
  },
  {
    "id": "abudhabi",
    "lon": 54.37,
    "lat": 24.45,
    "cat": "retaliation",
    "label": "Abu Dhabi",
    "sub": "Zayed Intl Airport hit — 1 killed, 7 injured. Etihad Towers area struck.",
    "tier": 2,
    "date": "2026-02-28",
    "lastUpdated": "2026-03-06T05:57:54.619Z"
  },
  {
    "id": "doha",
    "lon": 51.53,
    "lat": 25.29,
    "cat": "retaliation",
    "label": "Doha",
    "sub": "65 missiles + 12 drones. Al Udeid AB targeted. Qatar shot down 2 Su-24s. 16 injured.",
    "tier": 2,
    "date": "2026-02-28",
    "lastUpdated": "2026-03-06T05:57:54.619Z"
  },
  {
    "id": "bahrain_r",
    "lon": 50.58,
    "lat": 26.07,
    "cat": "retaliation",
    "label": "Bahrain",
    "sub": "5th Fleet HQ targeted. Shahed drone hit apartment. Airport struck. 4 injured.",
    "tier": 2,
    "date": "2026-03-01"
  },
  {
    "id": "kuwait_r",
    "lon": 47.98,
    "lat": 29.38,
    "cat": "retaliation",
    "label": "Kuwait",
    "sub": "Camp Buehring drone strike — 4 US troops killed. Ali Al Salem AB attacked.",
    "tier": 1,
    "date": "2026-03-01"
  },
  {
    "id": "erbil",
    "lon": 44.01,
    "lat": 36.19,
    "cat": "retaliation",
    "label": "Erbil, Iraq",
    "sub": "70+ missiles/drones. Airport + US Consulate targeted. Fire at air base.",
    "tier": 2,
    "date": "2026-02-28"
  },
  {
    "id": "israel_r",
    "lon": 34.78,
    "lat": 32.07,
    "cat": "retaliation",
    "label": "Israel",
    "sub": "Multiple barrages. 9 killed Beit Shemesh, 777 hospitalized. Ben Gurion closed.",
    "tier": 2,
    "date": "2026-02-28",
    "showLabel": true
  },
  {
    "id": "rastanura",
    "lon": 50.06,
    "lat": 26.68,
    "cat": "retaliation",
    "label": "Ras Tanura",
    "sub": "Saudi refinery hit (fire contained). Prince Sultan AB targeted (intercepted).",
    "tier": 2,
    "date": "2026-03-01"
  },
  {
    "id": "al_asad",
    "lon": 43.78,
    "lat": 33.78,
    "cat": "retaliation",
    "label": "Al Asad AB, Iraq",
    "sub": "PMF fires 40+ rockets. 2 US contractors killed, 11 wounded. Base partially evacuated.",
    "tier": 1,
    "date": "2026-03-03"
  },
  {
    "id": "riyadh_r",
    "lon": 46.68,
    "lat": 24.71,
    "cat": "retaliation",
    "label": "Riyadh",
    "sub": "4 ballistic missiles intercepted by Patriot batteries. Debris fell in residential area, 2 minor injuries.",
    "tier": 1,
    "date": "2026-03-01"
  },
  {
    "id": "jeddah_r",
    "lon": 39.17,
    "lat": 21.54,
    "cat": "retaliation",
    "label": "Jeddah",
    "sub": "King Abdulaziz Intl Airport area targeted. 1 Shahed drone intercepted by Saudi air defense. Flights diverted 6 hours.",
    "tier": 2,
    "date": "2026-03-02"
  },
  {
    "id": "dammam_r",
    "lon": 50.1,
    "lat": 26.43,
    "cat": "retaliation",
    "label": "Dammam",
    "sub": "Eastern Saudi Arabia, near Aramco oil facilities. Shrapnel damage to perimeter fence; no fire. 1 worker injured.",
    "tier": 2,
    "date": "2026-03-02"
  },
  {
    "id": "incirlik_r",
    "lon": 35.43,
    "lat": 37,
    "cat": "retaliation",
    "label": "Incirlik, Turkey",
    "sub": "Drone debris found near base perimeter. Origin not confirmed Iranian; Turkey investigating. No casualties.",
    "tier": 2,
    "date": "2026-03-03"
  },
  {
    "id": "telaviv_r",
    "lon": 34.78,
    "lat": 32.08,
    "cat": "retaliation",
    "label": "Tel Aviv",
    "sub": "Multiple rocket barrages from Hezbollah. Iron Dome briefly overwhelmed in southern sector. 3 killed, 47 injured.",
    "tier": 1,
    "date": "2026-03-01"
  },
  {
    "id": "hadera_r",
    "lon": 34.92,
    "lat": 32.44,
    "cat": "retaliation",
    "label": "Hadera",
    "sub": "Industrial zone hit by Fateh-110 ballistic missile fragment. Chemical plant damaged; evacuation ordered for 2km radius.",
    "tier": 2,
    "date": "2026-03-02"
  },
  {
    "id": "lincoln",
    "lon": 60,
    "lat": 23,
    "cat": "asset",
    "label": "USS Abraham Lincoln",
    "sub": "CVN-72 + CSG. F/A-18s, F-35Cs. IRGC claims hit — CENTCOM denies.",
    "tier": 1,
    "date": "2026-01-23",
    "showLabel": true
  },
  {
    "id": "ford",
    "lon": 33.5,
    "lat": 34.5,
    "cat": "asset",
    "label": "USS Gerald R. Ford",
    "sub": "CVN-78 + CSG-12. Eastern Mediterranean off Israel.",
    "tier": 1,
    "date": "2026-02-01",
    "showLabel": true
  },
  {
    "id": "aludeid",
    "lon": 51.31,
    "lat": 25.12,
    "cat": "asset",
    "label": "Al Udeid AB, Qatar",
    "sub": "CENTCOM forward HQ. Major air ops hub. F-15E and KC-135 operations.",
    "tier": 1,
    "date": "2026-02-10",
    "base": true
  },
  {
    "id": "aldhafra",
    "lon": 54.55,
    "lat": 24.25,
    "cat": "asset",
    "label": "Al Dhafra AB, UAE",
    "sub": "US air operations base. F-35A Lightning II detachment. MQ-9 Reaper ISR.",
    "tier": 1,
    "date": "2026-02-10",
    "base": true
  },
  {
    "id": "buehring",
    "lon": 47.63,
    "lat": 29.17,
    "cat": "asset",
    "label": "Camp Buehring, Kuwait",
    "sub": "3rd ESC. Patriot batteries. 4 US troops killed here by Arash-2 drone.",
    "tier": 1,
    "date": "2026-02-19",
    "base": true
  },
  {
    "id": "akrotiri",
    "lon": 32.99,
    "lat": 34.58,
    "cat": "asset",
    "label": "RAF Akrotiri, Cyprus",
    "sub": "UK base. Typhoons + Storm Shadow missiles. Suspected drone hit, no casualties.",
    "tier": 2,
    "date": "2026-02-15",
    "base": true
  },
  {
    "id": "diego_garcia",
    "lon": 54,
    "lat": 21,
    "cat": "asset",
    "label": "Diego Garcia",
    "sub": "B-2 Spirit forward operating base, Indian Ocean. GBU-57 bunker busters. Proxy position shown.",
    "tier": 1,
    "date": "2026-02-15",
    "base": true
  },
  {
    "id": "camp_arifjan",
    "lon": 48.1,
    "lat": 29.06,
    "cat": "asset",
    "label": "Camp Arifjan, Kuwait",
    "sub": "US Army Central forward HQ. Theater logistics and C2 hub. 10,000+ personnel.",
    "tier": 1,
    "date": "2026-02-20",
    "base": true
  },
  {
    "id": "prince_sultan_ab",
    "lon": 45.62,
    "lat": 24.06,
    "cat": "asset",
    "label": "Prince Sultan AB, Saudi",
    "sub": "US air operations center. THAAD battery deployed. F-15E Strike Eagle detachment.",
    "tier": 1,
    "date": "2026-02-18",
    "base": true
  },
  {
    "id": "souda_bay",
    "lon": 24.12,
    "lat": 35.49,
    "cat": "asset",
    "label": "Souda Bay, Crete",
    "sub": "US Navy support hub. Ammunition and fuel resupply for Ford CSG.",
    "tier": 1,
    "date": "2026-02-20",
    "base": true
  },
  {
    "id": "incirlik",
    "lon": 35.43,
    "lat": 37,
    "cat": "asset",
    "label": "Incirlik AB, Turkey",
    "sub": "NATO base. Turkey denies US combat ops but allows ISR flights. KC-135 tankers.",
    "tier": 2,
    "date": "2026-02-20",
    "base": true
  },
  {
    "id": "beirut",
    "lon": 35.5,
    "lat": 33.89,
    "cat": "front",
    "label": "Beirut",
    "sub": "Israel struck Dahiyeh suburb. Hezbollah intel chief Makled killed. 52 killed, 154 wounded in Lebanon.",
    "tier": 2,
    "date": "2026-02-28",
    "showLabel": true
  },
  {
    "id": "haifa",
    "lon": 35,
    "lat": 32.81,
    "cat": "front",
    "label": "Haifa area",
    "sub": "Hezbollah fired 6 projectiles at Mishmar HaCarmel — first attack since Nov 2024 ceasefire.",
    "tier": 2,
    "date": "2026-02-28"
  },
  {
    "id": "hormuz",
    "lon": 56.5,
    "lat": 26.5,
    "cat": "front",
    "label": "Strait of Hormuz",
    "sub": "De facto shutdown. IRGC says traffic \"not allowed.\" 150+ ships anchored. 15M bbl/day normally transits.",
    "tier": 2,
    "date": "2026-02-28",
    "showLabel": true,
    "zoneRadius": 60000
  },
  {
    "id": "red_sea",
    "lon": 42.5,
    "lat": 14.5,
    "cat": "front",
    "label": "Red Sea",
    "sub": "Houthi anti-ship missiles at USS Gravely. All intercepted. Houthis declare Red Sea blockade.",
    "tier": 2,
    "date": "2026-03-03",
    "showLabel": true
  },
  {
    "id": "golan_heights",
    "lon": 35.78,
    "lat": 33,
    "cat": "front",
    "label": "Golan Heights",
    "sub": "Israel-Syria border. Hezbollah-aligned militias probing Israeli positions. IDF deploys 36th Armored Division to border.",
    "tier": 2,
    "date": "2026-03-01"
  },
  {
    "id": "bab_el_mandeb",
    "lon": 43.3,
    "lat": 12.6,
    "cat": "front",
    "label": "Bab el-Mandeb",
    "sub": "Houthi naval mines detected in shipping lane. Coalition minesweeping ops underway. 3 commercial vessels diverted.",
    "tier": 2,
    "date": "2026-03-02"
  },
  {
    "id": "syria_iraq_border",
    "lon": 41.2,
    "lat": 34.5,
    "cat": "front",
    "label": "Syria-Iraq Border",
    "sub": "PMF movement detected crossing into Syria. US MQ-9 surveillance flights increased to 24/7. CENTCOM warns of escalation.",
    "tier": 2,
    "date": "2026-03-03"
  },
  {
    "id": "basra",
    "lon": 47.78,
    "lat": 30.5,
    "cat": "retaliation",
    "label": "Basra",
    "sub": "Iranian strikes hit Halliburton and KBR facilities; fires reported.",
    "tier": 2,
    "date": "2026-03-07",
    "lastUpdated": "2026-03-07T01:18:42.086Z"
  },
  {
    "id": "riyadh_embassy",
    "lon": 46.7,
    "lat": 24.7,
    "cat": "retaliation",
    "label": "U.S. Embassy, Riyadh",
    "sub": "Two drones struck embassy; minor damage and fire reported.",
    "tier": 2,
    "date": "2026-03-03",
    "lastUpdated": "2026-03-07T01:18:42.086Z"
  },
  {
    "id": "nakhchivan_airport",
    "lon": 45.45,
    "lat": 39.2,
    "cat": "retaliation",
    "label": "Nakhchivan International Airport",
    "sub": "Three Iranian UAVs targeted passenger terminal; no casualties reported.",
    "tier": 2,
    "date": "2026-03-05",
    "lastUpdated": "2026-03-07T01:18:42.086Z"
  },
  {
    "id": "port_shuaiba",
    "lon": 48.15,
    "lat": 29.03,
    "cat": "retaliation",
    "label": "Port Shuaiba, Kuwait",
    "sub": "Iranian strike targeted makeshift U.S. command center; 6 U.S. service members killed.",
    "tier": 1,
    "date": "2026-03-05",
    "lastUpdated": "2026-03-07T01:18:42.086Z"
  },
  {
    "id": "strait_of_hormuz",
    "lon": 56.5,
    "lat": 26.5,
    "cat": "front",
    "label": "Strait of Hormuz",
    "sub": "IRGC claims complete control; commercial shipping harassed.",
    "tier": 2,
    "date": "2026-03-05",
    "lastUpdated": "2026-03-07T01:18:42.086Z"
  },
  {
    "id": "tehran_regime_infra",
    "lon": 51.42,
    "lat": 35.72,
    "cat": "strike",
    "label": "Tehran (Regime Infrastructure)",
    "sub": "Broad wave of Israeli strikes targeting regime infrastructure including government ministries and IRGC command centers. Part of intensified campaign amid Trump demand for unconditional surrender.",
    "tier": 1,
    "date": "2026-03-06",
    "lastUpdated": "2026-03-06T12:00:00.000Z"
  },
  {
    "id": "beirut_dahiyeh_mar6",
    "lon": 35.5,
    "lat": 33.85,
    "cat": "strike",
    "label": "Beirut (Dahiyeh)",
    "sub": "Israeli airstrikes on Beirut's southern suburbs (Dahiyeh) following mass evacuation order. Hezbollah-held areas targeted amid escalating Israel-Hezbollah hostilities.",
    "tier": 1,
    "date": "2026-03-06",
    "lastUpdated": "2026-03-06T12:00:00.000Z"
  },
  {
    "id": "isfahan_mil_mar6",
    "lon": 51.67,
    "lat": 32.65,
    "cat": "strike",
    "label": "Isfahan (Military Sites)",
    "sub": "Continued aerial campaign targeting Isfahan military installations. Air defense sites and missile infrastructure struck in follow-up operations.",
    "tier": 2,
    "date": "2026-03-06",
    "lastUpdated": "2026-03-06T12:00:00.000Z"
  },
  {
    "id": "pt_jan26_lincoln_gulf",
    "lon": 51.5,
    "lat": 26.5,
    "cat": "asset",
    "label": "USS Lincoln CSG",
    "sub": "CVN-72 enters Persian Gulf via Strait of Hormuz. Mobile Bay, Halsey, O Kane escorting.",
    "tier": 1,
    "date": "2026-01-26",
    "lastUpdated": "2026-03-07T05:19:32.200Z"
  },
  {
    "id": "pt_jan28_semnan",
    "lon": 53.39,
    "lat": 35.57,
    "cat": "retaliation",
    "label": "Semnan Missile Test",
    "sub": "Kheibar-2 IRBM test-fired with claimed 2,000km range. Pentagon tracked trajectory over Gulf of Oman.",
    "tier": 1,
    "date": "2026-01-28",
    "lastUpdated": "2026-03-07T05:19:32.200Z"
  },
  {
    "id": "pt_feb03_hormuz_standoff",
    "lon": 56.3,
    "lat": 26.6,
    "cat": "front",
    "label": "Hormuz Standoff",
    "sub": "IRGC gunboats attempted to seize US-flagged tanker MV Richmond Voyager. USS Gravely fired warning shots.",
    "tier": 1,
    "date": "2026-02-03",
    "lastUpdated": "2026-03-07T05:19:32.200Z"
  },
  {
    "id": "pt_feb21_bataan",
    "lon": 50.5,
    "lat": 26,
    "cat": "asset",
    "label": "USS Bataan ARG",
    "sub": "Bataan Amphibious Ready Group with 26th MEU ordered to Arabian Gulf. 90+ surface combatants in CENTCOM AOR.",
    "tier": 1,
    "date": "2026-02-21",
    "lastUpdated": "2026-03-07T05:19:32.200Z"
  },
  {
    "id": "pt_feb22_snsc",
    "lon": 51.39,
    "lat": 35.69,
    "cat": "retaliation",
    "label": "Tehran (SNSC)",
    "sub": "Supreme National Security Council convenes after Russia and China veto UNSC resolution. Iran escalates nuclear stance.",
    "tier": 2,
    "date": "2026-02-22",
    "lastUpdated": "2026-03-07T05:19:32.200Z"
  },
  {
    "id": "pt_feb23_hormuz_exercise",
    "lon": 56.2,
    "lat": 26.3,
    "cat": "retaliation",
    "label": "IRGC Hormuz Exercise",
    "sub": "Live-fire naval exercise with fast boats, anti-ship missiles, mine-laying drills. Lloyd s raises war-risk premiums 300%.",
    "tier": 1,
    "date": "2026-02-23",
    "lastUpdated": "2026-03-07T05:19:32.200Z"
  },
  {
    "id": "pt_feb24_centcom_fwd",
    "lon": 51.31,
    "lat": 25.12,
    "cat": "asset",
    "label": "CENTCOM Forward HQ",
    "sub": "Combat readiness elevated after State of the Union signals imminent action against Iran.",
    "tier": 1,
    "date": "2026-02-24",
    "lastUpdated": "2026-03-07T05:19:32.200Z"
  },
  {
    "id": "pt_feb25_psab_surge",
    "lon": 45.62,
    "lat": 24.06,
    "cat": "asset",
    "label": "Prince Sultan AB Surge",
    "sub": "Additional F-15E squadron deployed in anticipation of AUMF passage. Combat sorties pre-planned.",
    "tier": 1,
    "date": "2026-02-25",
    "lastUpdated": "2026-03-07T05:19:32.200Z"
  },
  {
    "id": "pt_feb26_fordow_enrich",
    "lon": 51.58,
    "lat": 34.62,
    "cat": "retaliation",
    "label": "Fordow Enrichment",
    "sub": "Iran enriches to 83.7% weapons-grade threshold. IAEA inspectors expelled within 48 hours.",
    "tier": 1,
    "date": "2026-02-26",
    "lastUpdated": "2026-03-07T05:19:32.200Z"
  },
  {
    "id": "pt_feb27_evac_kuwait",
    "lon": 47.98,
    "lat": 29.38,
    "cat": "asset",
    "label": "Kuwait Embassy Evacuation",
    "sub": "State Dept orders authorized departure from embassies in Iraq, Kuwait, Bahrain, UAE, Qatar.",
    "tier": 1,
    "date": "2026-02-27",
    "lastUpdated": "2026-03-07T05:19:32.200Z"
  },
  {
    "id": "pt_jan24_jordan",
    "lon": 36,
    "lat": 30.8,
    "cat": "asset",
    "label": "Muwaffaq al-Salti AB, Jordan",
    "sub": "24 F-15E Strike Eagles from RAF Lakenheath arrive. F-35A stealth fighters en route. Strike platform activated.",
    "tier": 1,
    "date": "2026-01-24",
    "base": true,
    "lastUpdated": "2026-03-07T05:29:27.814Z"
  },
  {
    "id": "pt_jan25_iran_warning",
    "lon": 51.39,
    "lat": 35.69,
    "cat": "retaliation",
    "label": "Tehran (SNSC Warning)",
    "sub": "Supreme National Security Council warns US: any military action met with devastating retaliation across entire region.",
    "tier": 1,
    "date": "2026-01-25",
    "lastUpdated": "2026-03-07T05:29:27.814Z"
  },
  {
    "id": "pt_jan27_lincoln_approach",
    "lon": 58,
    "lat": 25,
    "cat": "asset",
    "label": "USS Lincoln (Arabian Sea)",
    "sub": "Lincoln CSG approaching Persian Gulf. State Dept demands Iran halt nuclear escalations, missile program, proxy support.",
    "tier": 1,
    "date": "2026-01-27",
    "lastUpdated": "2026-03-07T05:29:27.814Z"
  },
  {
    "id": "pt_jan29_irgc_exercises",
    "lon": 52,
    "lat": 34,
    "cat": "retaliation",
    "label": "IRGC Missile Readiness",
    "sub": "IRGC exercises emphasizing missile capabilities. Mobile launcher movement detected near Natanz and Isfahan via satellite.",
    "tier": 2,
    "date": "2026-01-29",
    "lastUpdated": "2026-03-07T05:29:27.814Z"
  },
  {
    "id": "pt_jan30_natanz_defense",
    "lon": 51.73,
    "lat": 33.51,
    "cat": "retaliation",
    "label": "Natanz Air Defense",
    "sub": "S-300 batteries repositioned near Natanz. Iran declares active deterrence doctrine — shift from defensive to offensive posture.",
    "tier": 2,
    "date": "2026-01-30",
    "lastUpdated": "2026-03-07T05:29:27.814Z"
  },
  {
    "id": "pt_jan31_jordan_f35",
    "lon": 36,
    "lat": 30.8,
    "cat": "asset",
    "label": "Jordan F-35A Buildup",
    "sub": "F-35A deployment reaches 30 airframes at Muwaffaq al-Salti. 60+ combat aircraft now at base. Hardened shelters activated.",
    "tier": 1,
    "date": "2026-01-31",
    "lastUpdated": "2026-03-07T05:29:27.814Z"
  },
  {
    "id": "pt_feb02_hormuz_drills",
    "lon": 56.3,
    "lat": 26.5,
    "cat": "retaliation",
    "label": "IRGC Hormuz Drills",
    "sub": "Two-day live-fire exercises in Strait of Hormuz. 20% of world oil transits here. CENTCOM monitors from nearby.",
    "tier": 1,
    "date": "2026-02-02",
    "lastUpdated": "2026-03-07T05:29:27.814Z"
  },
  {
    "id": "pt_feb04_jerusalem",
    "lon": 35.23,
    "lat": 31.77,
    "cat": "asset",
    "label": "Jerusalem Summit",
    "sub": "Witkoff-Netanyahu meeting. Israel briefs US on Isfahan underground fortification and Iran missile arsenal intelligence.",
    "tier": 1,
    "date": "2026-02-04",
    "lastUpdated": "2026-03-07T05:29:27.814Z"
  },
  {
    "id": "pt_feb05_muscat",
    "lon": 58.5,
    "lat": 23.6,
    "cat": "asset",
    "label": "Muscat, Oman",
    "sub": "US-Iran talks delegation arrives. CENTCOM commander Admiral Brad Cooper joins US negotiating team. Omani mediation.",
    "tier": 1,
    "date": "2026-02-05",
    "lastUpdated": "2026-03-07T05:29:27.814Z"
  },
  {
    "id": "pt_feb06_muscat_talks",
    "lon": 58.5,
    "lat": 23.6,
    "cat": "asset",
    "label": "Muscat Talks",
    "sub": "First US-Iran indirect talks since June 2025. Iran insists on nuclear-only agenda; US wants comprehensive framework.",
    "tier": 1,
    "date": "2026-02-06",
    "lastUpdated": "2026-03-07T05:29:27.814Z"
  },
  {
    "id": "pt_feb07_gulf_tensions",
    "lon": 50.33,
    "lat": 29.23,
    "cat": "front",
    "label": "Persian Gulf Tensions",
    "sub": "Oil markets react to inconclusive Muscat talks. War risk premiums rise 15%. Iranian crude trading at record discount.",
    "tier": 2,
    "date": "2026-02-07",
    "lastUpdated": "2026-03-07T05:29:27.814Z"
  },
  {
    "id": "pt_feb08_isfahan_tunnel",
    "lon": 51.66,
    "lat": 32.65,
    "cat": "retaliation",
    "label": "Isfahan Tunnel Complex",
    "sub": "Satellite shows massive earthworks sealing tunnel entrances. Centrifuges being transferred. Iran preparing for aerial attack.",
    "tier": 2,
    "date": "2026-02-08",
    "lastUpdated": "2026-03-07T05:29:27.814Z"
  },
  {
    "id": "pt_feb09_ford_transit",
    "lon": 25.5,
    "lat": 36,
    "cat": "asset",
    "label": "USS Ford (Atlantic Approach)",
    "sub": "Ford CSG begins transatlantic crossing toward Mediterranean. Unprecedented two-carrier posture developing against Iran.",
    "tier": 1,
    "date": "2026-02-09",
    "lastUpdated": "2026-03-07T05:29:27.814Z"
  },
  {
    "id": "pt_feb11_tehran_rally",
    "lon": 51.39,
    "lat": 35.69,
    "cat": "retaliation",
    "label": "Tehran Revolution Rally",
    "sub": "47th Revolution anniversary. Khamenei calls for steadfastness. Pezeshkian apologizes for protest crackdown. Counter-protests continue.",
    "tier": 2,
    "date": "2026-02-11",
    "lastUpdated": "2026-03-07T05:29:27.814Z"
  },
  {
    "id": "pt_feb12_isfahan_ops",
    "lon": 51.66,
    "lat": 32.65,
    "cat": "retaliation",
    "label": "Isfahan Nuclear Ops",
    "sub": "Massive logistics at underground tunnel complex. Iran transferring centrifuges and sealing entrances. IAEA cannot verify.",
    "tier": 2,
    "date": "2026-02-12",
    "lastUpdated": "2026-03-07T05:29:27.814Z"
  },
  {
    "id": "pt_feb13_ford_ordered",
    "lon": 30,
    "lat": 35,
    "cat": "asset",
    "label": "USS Ford (Mediterranean Bound)",
    "sub": "Trump at Fort Bragg announces regime change desirable. Ford CSG ordered to Middle East. $1 trillion military investment.",
    "tier": 1,
    "date": "2026-02-13",
    "lastUpdated": "2026-03-07T05:29:27.814Z"
  },
  {
    "id": "pt_feb14_centcom_planning",
    "lon": 51.31,
    "lat": 25.12,
    "cat": "asset",
    "label": "CENTCOM Campaign Planning",
    "sub": "US military preparing sustained weeks-long campaign. Targets include nuclear sites, state and security facilities. Retaliation expected.",
    "tier": 1,
    "date": "2026-02-14",
    "lastUpdated": "2026-03-07T05:29:27.814Z"
  },
  {
    "id": "pt_feb16_hormuz_smart",
    "lon": 56.3,
    "lat": 26.5,
    "cat": "retaliation",
    "label": "IRGC Smart Control Drills",
    "sub": "Large-scale exercises near disputed islands. Missile-launching vessels, coastal batteries, deep-strike missile tests.",
    "tier": 1,
    "date": "2026-02-16",
    "lastUpdated": "2026-03-07T05:29:27.814Z"
  },
  {
    "id": "pt_feb17_hormuz_closure",
    "lon": 56.5,
    "lat": 26.5,
    "cat": "front",
    "label": "Hormuz Temporary Closure",
    "sub": "Iran temporarily closes Strait to commercial shipping for live-fire drills. Oil prices surge. CENTCOM calls it reckless.",
    "tier": 1,
    "date": "2026-02-17",
    "lastUpdated": "2026-03-07T05:29:27.814Z"
  },
  {
    "id": "tehran_oil_facility_mar8",
    "lon": 51.389,
    "lat": 35.689,
    "cat": "strike",
    "label": "Tehran Oil Storage Facility",
    "sub": "Israeli airstrike targeted vital oil storage facility in Tehran, marking escalation as civil infrastructure becomes a target.",
    "tier": 1,
    "date": "2026-03-08",
    "base": false,
    "lastUpdated": "2026-03-08T00:29:50.183Z"
  },
  {
    "id": "mehrabad_airport_mar8",
    "lon": 51.313,
    "lat": 35.689,
    "cat": "strike",
    "label": "Mehrabad International Airport",
    "sub": "Israeli airstrikes targeted Tehran's Mehrabad International Airport, reportedly used for arms transport.",
    "tier": 1,
    "date": "2026-03-08",
    "base": false,
    "lastUpdated": "2026-03-08T00:29:50.183Z"
  },
  {
    "id": "isfahan_military_targets_mar8",
    "lon": 51.677,
    "lat": 32.654,
    "cat": "strike",
    "label": "Isfahan Military Targets",
    "sub": "U.S. and Israeli forces executed strikes on multiple targets in Isfahan, focusing on military infrastructure.",
    "tier": 1,
    "date": "2026-03-08",
    "base": false,
    "lastUpdated": "2026-03-08T00:29:50.183Z"
  },
  {
    "id": "bushehr_airport_mar8",
    "lon": 50.831,
    "lat": 28.944,
    "cat": "strike",
    "label": "Bushehr Airport",
    "sub": "Israeli airstrikes damaged airport terminal and destroyed an Iran Air Airbus A319.",
    "tier": 1,
    "date": "2026-03-08",
    "base": false,
    "lastUpdated": "2026-03-08T00:29:50.183Z"
  },
  {
    "id": "tehran_irib_mar8",
    "lon": 51.389,
    "lat": 35.689,
    "cat": "strike",
    "label": "IRIB Headquarters",
    "sub": "Israeli airstrikes targeted the Islamic Republic of Iran Broadcasting headquarters in Tehran.",
    "tier": 1,
    "date": "2026-03-08",
    "base": false,
    "lastUpdated": "2026-03-08T00:29:50.183Z"
  },
  {
    "id": "tehran_parliament_mar8",
    "lon": 51.389,
    "lat": 35.689,
    "cat": "strike",
    "label": "Iranian Parliament Building",
    "sub": "Israeli airstrikes targeted Iran's parliament building in Tehran.",
    "tier": 1,
    "date": "2026-03-08",
    "base": false,
    "lastUpdated": "2026-03-08T00:29:50.183Z"
  },
  {
    "id": "tehran_assembly_experts_mar8",
    "lon": 51.389,
    "lat": 35.689,
    "cat": "strike",
    "label": "Assembly of Experts",
    "sub": "Israeli airstrikes targeted the Assembly of Experts during a meeting to elect the next supreme leader.",
    "tier": 1,
    "date": "2026-03-08",
    "base": false,
    "lastUpdated": "2026-03-08T00:29:50.183Z"
  },
  {
    "id": "tehran_sns_council_mar8",
    "lon": 51.389,
    "lat": 35.689,
    "cat": "strike",
    "label": "Supreme National Security Council",
    "sub": "Israeli airstrikes destroyed the Supreme National Security Council headquarters in Tehran.",
    "tier": 1,
    "date": "2026-03-08",
    "base": false,
    "lastUpdated": "2026-03-08T00:29:50.183Z"
  },
  {
    "id": "tehran_expediency_council_mar8",
    "lon": 51.389,
    "lat": 35.689,
    "cat": "strike",
    "label": "Expediency Discernment Council",
    "sub": "Israeli airstrikes destroyed the Expediency Discernment Council building in Tehran.",
    "tier": 1,
    "date": "2026-03-08",
    "base": false,
    "lastUpdated": "2026-03-08T00:29:50.183Z"
  },
  {
    "id": "tehran_min_zadai_mar8",
    "lon": 51.389,
    "lat": 35.689,
    "cat": "strike",
    "label": "Min Zadai Facility",
    "sub": "Israeli airstrikes targeted an underground nuclear weapons facility called Min Zadai in Tehran.",
    "tier": 1,
    "date": "2026-03-08",
    "base": false,
    "lastUpdated": "2026-03-08T00:29:50.183Z"
  },
  {
    "id": "minab_school_strike_feb28",
    "lon": 57.08,
    "lat": 27.15,
    "cat": "strike",
    "label": "Shajareh Tayyebeh Elementary School",
    "sub": "U.S. airstrike hit elementary school in Minab, killing over 165 people, mostly children.",
    "tier": 1,
    "date": "2026-02-28",
    "base": false,
    "lastUpdated": "2026-03-08T06:19:02.250Z"
  },
  {
    "id": "riyadh_embassy_drone_mar3",
    "lon": 46.71,
    "lat": 24.69,
    "cat": "retaliation",
    "label": "U.S. Embassy in Riyadh",
    "sub": "Iranian drones struck U.S. Embassy in Riyadh, causing minor damage and a small fire.",
    "tier": 1,
    "date": "2026-03-03",
    "base": false,
    "lastUpdated": "2026-03-08T06:19:02.250Z"
  },
  {
    "id": "nakhchivan_airport_uav_mar5",
    "lon": 45.45,
    "lat": 39.19,
    "cat": "retaliation",
    "label": "Nakhchivan International Airport",
    "sub": "Three Iranian UAVs targeted passenger terminal of Nakhchivan International Airport in Azerbaijan.",
    "tier": 1,
    "date": "2026-03-05",
    "base": false,
    "lastUpdated": "2026-03-08T06:19:02.250Z"
  },
  {
    "id": "tehran_internal_security_mar6",
    "lon": 51.389,
    "lat": 35.689,
    "cat": "strike",
    "label": "Internal Security Headquarters",
    "sub": "Israeli airstrike destroyed central command facility of Iran's internal security forces in Tehran.",
    "tier": 1,
    "date": "2026-03-06",
    "base": false,
    "lastUpdated": "2026-03-08T06:19:02.250Z"
  },
  {
    "id": "tehran_ahmadinejad_residence_mar6",
    "lon": 51.389,
    "lat": 35.689,
    "cat": "strike",
    "label": "Ahmadinejad's Residence",
    "sub": "Israeli precision strike killed former President Mahmoud Ahmadinejad at his residence in Tehran.",
    "tier": 1,
    "date": "2026-03-06",
    "base": false,
    "lastUpdated": "2026-03-08T06:19:02.250Z"
  },
  {
    "id": "tehran_police_station_mar7",
    "lon": 51.389,
    "lat": 35.689,
    "cat": "strike",
    "label": "Police Station in Tehran",
    "sub": "U.S.-Israeli strike targeted police station in Tehran, causing significant damage.",
    "tier": 1,
    "date": "2026-03-07",
    "base": false,
    "lastUpdated": "2026-03-08T06:19:02.250Z"
  },
  {
    "id": "tehran_grand_bazaar_mar7",
    "lon": 51.389,
    "lat": 35.689,
    "cat": "strike",
    "label": "Grand Bazaar",
    "sub": "U.S.-Israeli airstrikes damaged Tehran's Grand Bazaar, a significant cultural and economic site.",
    "tier": 1,
    "date": "2026-03-07",
    "base": false,
    "lastUpdated": "2026-03-08T06:19:02.250Z"
  },
  {
    "id": "tehran_golestan_palace_mar7",
    "lon": 51.389,
    "lat": 35.689,
    "cat": "strike",
    "label": "Golestan Palace",
    "sub": "U.S.-Israeli airstrikes damaged Golestan Palace, a UNESCO World Heritage site in Tehran.",
    "tier": 1,
    "date": "2026-03-07",
    "base": false,
    "lastUpdated": "2026-03-08T06:19:02.250Z"
  },
  {
    "id": "tehran_hospital_mar7",
    "lon": 51.389,
    "lat": 35.689,
    "cat": "strike",
    "label": "Hospital in Tehran",
    "sub": "U.S.-Israeli airstrikes hit a hospital in Tehran, resulting in civilian casualties.",
    "tier": 1,
    "date": "2026-03-07",
    "base": false,
    "lastUpdated": "2026-03-08T06:19:02.250Z"
  },
  {
    "id": "tehran_school_mar7",
    "lon": 51.389,
    "lat": 35.689,
    "cat": "strike",
    "label": "School in Tehran",
    "sub": "U.S.-Israeli airstrikes hit a school in Tehran, causing civilian casualties.",
    "tier": 1,
    "date": "2026-03-07",
    "base": false,
    "lastUpdated": "2026-03-08T06:19:02.250Z"
  },
  {
    "id": "tehran_air_defense_mar7",
    "lon": 51.389,
    "lat": 35.689,
    "cat": "strike",
    "label": "Air Defense Systems in Tehran",
    "sub": "Israeli military claimed destruction of advanced Iranian air defense systems in Tehran.",
    "tier": 1,
    "date": "2026-03-07",
    "base": false,
    "lastUpdated": "2026-03-08T06:19:02.250Z"
  },
  {
    "id": "tehran_missile_launchers_mar7",
    "lon": 51.389,
    "lat": 35.689,
    "cat": "strike",
    "label": "Ballistic Missile Launchers in Tehran",
    "sub": "U.S. B-2 bombers destroyed buried Iranian ballistic missile launch facilities in Tehran.",
    "tier": 1,
    "date": "2026-03-07",
    "base": false,
    "lastUpdated": "2026-03-08T06:19:02.250Z"
  },
  {
    "id": "beirut_hezbollah_command_mar7",
    "lon": 35.5,
    "lat": 33.9,
    "cat": "strike",
    "label": "Hezbollah Command Centers in Beirut",
    "sub": "Israeli airstrikes targeted multiple Hezbollah command centers in Beirut.",
    "tier": 1,
    "date": "2026-03-07",
    "base": false,
    "lastUpdated": "2026-03-08T06:19:02.250Z"
  },
  {
    "id": "tripoli_strike_mar7",
    "lon": 35.9,
    "lat": 34.4,
    "cat": "strike",
    "label": "Tripoli, Northern Lebanon",
    "sub": "Israeli airstrikes hit the city of Tripoli for the first time in the conflict.",
    "tier": 1,
    "date": "2026-03-07",
    "base": false,
    "lastUpdated": "2026-03-08T06:19:02.250Z"
  },
  {
    "id": "iranian_naval_vessels_mar7",
    "lon": 56,
    "lat": 26,
    "cat": "strike",
    "label": "Iranian Naval Vessels in Gulf of Oman",
    "sub": "U.S. forces sank over 30 Iranian ships, including a drone carrier set ablaze.",
    "tier": 1,
    "date": "2026-03-07",
    "base": false,
    "lastUpdated": "2026-03-08T06:19:02.250Z"
  },
  {
    "id": "basra_oil_facility_mar7",
    "lon": 47.8,
    "lat": 30.5,
    "cat": "retaliation",
    "label": "Halliburton Oil Facilities in Basra",
    "sub": "Iranian missile strikes set U.S.-based Halliburton and KBR facilities ablaze in Basra, Iraq.",
    "tier": 1,
    "date": "2026-03-07",
    "base": false,
    "lastUpdated": "2026-03-08T06:19:02.250Z"
  },
  {
    "id": "iranian_missile_barrage_israel_mar7",
    "lon": 35,
    "lat": 32,
    "cat": "retaliation",
    "label": "Missile Barrage on Israel",
    "sub": "Iran launched multiple missiles targeting Israel; interceptions reported.",
    "tier": 1,
    "date": "2026-03-07",
    "base": false,
    "lastUpdated": "2026-03-08T06:19:02.250Z"
  },
  {
    "id": "iranian_drone_strikes_gulf_mar7",
    "lon": 50.6,
    "lat": 26.2,
    "cat": "retaliation",
    "label": "Drone Strikes on Gulf States",
    "sub": "Iran intensified drone and missile attacks on Bahrain, causing massive damage to a refinery.",
    "tier": 1,
    "date": "2026-03-07",
    "base": false,
    "lastUpdated": "2026-03-08T06:19:02.250Z"
  },
  {
    "id": "hezbollah_missile_attacks_israel_mar7",
    "lon": 35,
    "lat": 32,
    "cat": "retaliation",
    "label": "Hezbollah Missile Attacks on Israel",
    "sub": "Hezbollah launched multiple missiles from Lebanon into Israel; Israeli airstrikes followed.",
    "tier": 2,
    "date": "2026-03-07",
    "base": false,
    "lastUpdated": "2026-03-08T06:19:02.250Z"
  },
  {
    "id": "iranian_uav_attack_azerbaijan_mar7",
    "lon": 45.45,
    "lat": 39.19,
    "cat": "retaliation",
    "label": "UAV Attack on Azerbaijan",
    "sub": "Three Iranian UAVs targeted the passenger terminal of Nakhchivan International Airport.",
    "tier": 2,
    "date": "2026-03-07",
    "base": false,
    "lastUpdated": "2026-03-08T06:19:02.250Z"
  },
  {
    "id": "irgc_air_force_hq_mar9",
    "lon": 51.4,
    "lat": 35.75,
    "cat": "strike",
    "label": "IRGC Air Force HQ",
    "sub": "IDF destroyed IRGC Air Force headquarters and IRGC Space & Satellite Command — the ballistic missile command center. 50 ammo bunkers also destroyed.",
    "tier": 1,
    "date": "2026-03-09",
    "lastUpdated": "2026-03-10T06:00:00.000Z"
  },
  {
    "id": "kish_island_fuel_depot_mar9",
    "lon": 53.96,
    "lat": 26.55,
    "cat": "strike",
    "label": "Kish Island Airport Fuel Depot",
    "sub": "Israeli strike destroyed fuel depot at Kish Island airport. Iranian naval ship Bandar Lengeh also destroyed in port of Bandar Abbas.",
    "tier": 1,
    "date": "2026-03-09",
    "lastUpdated": "2026-03-10T06:00:00.000Z"
  },
  {
    "id": "bapco_refinery_bahrain_mar9",
    "lon": 50.54,
    "lat": 26.18,
    "cat": "retaliation",
    "label": "Bapco Refinery, Bahrain (Sitra)",
    "sub": "Iranian UAV struck Bapco Energies refinery. Company declared force majeure. At least 32 injured including children from strikes on Sitra island.",
    "tier": 1,
    "date": "2026-03-09",
    "lastUpdated": "2026-03-10T06:00:00.000Z"
  },
  {
    "id": "fujairah_oil_facility_mar9",
    "lon": 56.34,
    "lat": 25.13,
    "cat": "retaliation",
    "label": "Fujairah Oil Facility, UAE",
    "sub": "Iranian strike ignited fire at oil facility in Fujairah. UAE air defenses remained active against ongoing missile and drone threats.",
    "tier": 2,
    "date": "2026-03-09",
    "lastUpdated": "2026-03-10T06:00:00.000Z"
  },
  {
    "id": "beirut_ghobeiry_hotel_mar9",
    "lon": 35.49,
    "lat": 33.87,
    "cat": "strike",
    "label": "Beirut (Ghobeiry) — Quds Force Meeting",
    "sub": "Israeli strike on hotel in Ghobeiry, Beirut targeting a meeting of five IRGC Quds Force commanders. Major explosion reported.",
    "tier": 1,
    "date": "2026-03-09",
    "lastUpdated": "2026-03-10T06:00:00.000Z"
  },
  {
    "id": "al_kharj_saudi_mar9",
    "lon": 47.3,
    "lat": 24.15,
    "cat": "retaliation",
    "label": "Al-Kharj, Saudi Arabia",
    "sub": "Iranian projectile killed 2 civilians (Indian, Bangladeshi nationals) in Al-Kharj. IRGC claimed target was radar systems. Saudi forces intercepted UAVs targeting Shaybah oil field.",
    "tier": 1,
    "date": "2026-03-09",
    "lastUpdated": "2026-03-10"
  },
  {
    "id": "qatar_intercept_mar9",
    "lon": 51.53,
    "lat": 25.29,
    "cat": "retaliation",
    "label": "Qatar (17 missiles intercepted)",
    "sub": "Qatar intercepted all 17 ballistic missiles and 6 drones from Iran. Air raid alerts at 03:15 local. No casualties or damage. Video released by Ministry of Defence.",
    "tier": 1,
    "date": "2026-03-09",
    "lastUpdated": "2026-03-10"
  },
  {
    "id": "shaybah_saudi_mar9",
    "lon": 48.1,
    "lat": 22.5,
    "cat": "retaliation",
    "label": "Shaybah Oil Field, Saudi Arabia",
    "sub": "Saudi Arabia intercepted Iranian UAVs heading toward the Shaybah oil field. No damage reported.",
    "tier": 1,
    "date": "2026-03-09",
    "lastUpdated": "2026-03-10"
  },
  {
    "id": "persian_gulf_tanker_zone_mar12",
    "lon": 56.0,
    "lat": 26.2,
    "cat": "retaliation",
    "label": "Persian Gulf Tanker Strike Zone",
    "sub": "IRGC drone/missile attacks on commercial shipping. 6 vessels struck Mar 11–12. ~500 tankers stranded in Persian Gulf. Iran claiming US-owned tanker hit near Iraqi waters.",
    "tier": 1,
    "date": "2026-03-12",
    "lastUpdated": "2026-03-13T06:00:00.000Z"
  },
  {
    "id": "iraq_southern_ports_tankers_mar12",
    "lon": 48.5,
    "lat": 29.8,
    "cat": "retaliation",
    "label": "Iraq Southern Ports — Tankers Hit",
    "sub": "Two oil tankers struck near Iraq's southern ports on March 12 — first such strikes in Iraqi waters since the war began.",
    "tier": 2,
    "date": "2026-03-12",
    "lastUpdated": "2026-03-13T06:00:00.000Z"
  },
  {
    "id": "oman_fuel_depot_mar12",
    "lon": 58.59,
    "lat": 23.59,
    "cat": "retaliation",
    "label": "Oman — Fuel Depot Fire",
    "sub": "Emergency crews battled fire at fuel storage tanks in Oman port after Iranian drone strike confirmed by video. March 12, 2026.",
    "tier": 2,
    "date": "2026-03-12",
    "lastUpdated": "2026-03-13T06:00:00.000Z"
  },
  {
    "id": "ahvaz_drone_base_mar9",
    "lon": 48.67,
    "lat": 31.34,
    "cat": "strike",
    "label": "Ahvaz — IRGC Drone Command HQ",
    "sub": "Ali Akbar Drone Base cratered by IDF. IRGC Aerospace Force drone command center destroyed in Khuzestan Province.",
    "tier": 1,
    "date": "2026-03-09",
    "lastUpdated": "2026-03-13T05:50:55.000Z"
  },
  {
    "id": "iran_airfields_mar9",
    "lon": 51.0,
    "lat": 33.0,
    "cat": "strike",
    "label": "Iranian Airfields (6 Struck)",
    "sub": "IDF struck 6 Iranian military airfields, destroyed 16 Quds Force transport aircraft and combat helicopters. Runways cratered.",
    "tier": 1,
    "date": "2026-03-09",
    "lastUpdated": "2026-03-13T05:50:55.000Z"
  },
  {
    "id": "gaziantep_nato_intercept_mar9",
    "lon": 37.38,
    "lat": 37.06,
    "cat": "retaliation",
    "label": "Gaziantep, Turkey — NATO Intercept",
    "sub": "Second Iranian ballistic missile intercepted by NATO integrated air defense over Sahinbey district, Gaziantep. No casualties.",
    "tier": 1,
    "date": "2026-03-09",
    "lastUpdated": "2026-03-13T05:50:55.000Z"
  },
  {
    "id": "tehran_aghdasieh_fuel_mar10",
    "lon": 51.47,
    "lat": 35.74,
    "cat": "strike",
    "label": "Tehran — Aghdasieh Fuel Depot",
    "sub": "Israeli airstrike on Aghdasieh oil warehouse in NE Tehran. Part of 4 fuel depot strikes killing 40. Toxic black rain over city of 10M.",
    "tier": 1,
    "date": "2026-03-10",
    "lastUpdated": "2026-03-13T05:50:55.000Z"
  },
  {
    "id": "tehran_shahran_fuel_mar10",
    "lon": 51.35,
    "lat": 35.78,
    "cat": "strike",
    "label": "Tehran — Shahran Oil Depot",
    "sub": "Israeli strike on Shahran oil depot north/west of Tehran. Thick black toxic smoke hung over city causing breathing difficulties.",
    "tier": 1,
    "date": "2026-03-10",
    "lastUpdated": "2026-03-13T05:50:55.000Z"
  },
  {
    "id": "karaj_fuel_depot_mar10",
    "lon": 50.99,
    "lat": 35.84,
    "cat": "strike",
    "label": "Karaj — Fuel Depot",
    "sub": "Israeli strike on oil depot in Karaj city, Alborz Province. Oil-tainted rainfall staining buildings in surrounding area.",
    "tier": 1,
    "date": "2026-03-10",
    "lastUpdated": "2026-03-13T05:50:55.000Z"
  },
  {
    "id": "yehud_israel_mar10",
    "lon": 34.89,
    "lat": 32.03,
    "cat": "retaliation",
    "label": "Yehud, Israel — Cluster Warhead Strike",
    "sub": "Iranian ballistic missile with cluster warhead killed 2 civilians in Yehud, wounded dozens. 14 total Israeli civilians killed since Feb 28.",
    "tier": 1,
    "date": "2026-03-10",
    "lastUpdated": "2026-03-13T05:50:55.000Z"
  },
  {
    "id": "hormuz_mine_field_mar11",
    "lon": 56.3,
    "lat": 26.5,
    "cat": "front",
    "label": "Strait of Hormuz — Mine Field",
    "sub": "Iran confirmed laying mines in Strait of Hormuz. Few dozen mines deployed. Ship transits down 95% (55 vs 160 prior week). US destroyed 16 mine-laying vessels.",
    "tier": 1,
    "date": "2026-03-11",
    "showLabel": true,
    "zoneRadius": 30000,
    "lastUpdated": "2026-03-13T05:50:55.000Z"
  },
  {
    "id": "jordan_119_projectiles_mar11",
    "lon": 35.93,
    "lat": 31.95,
    "cat": "retaliation",
    "label": "Jordan — 119 Missiles/Drones",
    "sub": "Jordan targeted by 119 Iranian missiles (60) and drones (59). 108 intercepted, 14 people injured. Jordan activated defense pacts.",
    "tier": 1,
    "date": "2026-03-11",
    "lastUpdated": "2026-03-13T05:50:55.000Z"
  },
  {
    "id": "beirut_diplomats_mar12",
    "lon": 35.5,
    "lat": 33.89,
    "cat": "strike",
    "label": "Beirut — 4 Iranian Diplomats Killed",
    "sub": "Israeli airstrike killed 4 Iranian diplomats. Iran called it 'terrorist attack' at UNSC. 8 total killed, 31 injured in Dahieh/central Beirut.",
    "tier": 1,
    "date": "2026-03-12",
    "lastUpdated": "2026-03-13T05:50:55.000Z"
  },
  {
    "id": "bahrain_muharraq_mar12",
    "lon": 50.62,
    "lat": 26.25,
    "cat": "retaliation",
    "label": "Muharraq, Bahrain — Fuel Tanks",
    "sub": "Iranian strike on fuel tanks in Muharraq Governorate. Residents told to stay inside and close windows. Cumulative: 281 projectiles on Bahrain.",
    "tier": 1,
    "date": "2026-03-12",
    "lastUpdated": "2026-03-13T05:50:55.000Z"
  },
  {
    "id": "jerusalem_missile_mar12",
    "lon": 35.23,
    "lat": 31.77,
    "cat": "retaliation",
    "label": "Jerusalem — Missile Near Old City",
    "sub": "Iranian missile struck few hundred meters from Old City, Western Wall, Al-Aqsa Mosque, Church of Holy Sepulchre. Prayer suspended at all holy sites.",
    "tier": 1,
    "date": "2026-03-12",
    "lastUpdated": "2026-03-13T05:50:55.000Z"
  },
  {
    "id": "salalah_oman_mar12",
    "lon": 54.08,
    "lat": 17.02,
    "cat": "retaliation",
    "label": "Port of Salalah, Oman — Oil Storage",
    "sub": "Iranian drones struck oil storage at Port of Salalah, Oman's largest facility. Emergency crews battled fire at fuel tanks. Confirmed by Ambrey and Omani media.",
    "tier": 2,
    "date": "2026-03-12",
    "lastUpdated": "2026-03-13T05:50:55.000Z"
  },
  {
    "id": "mala_qara_iraq_mar13",
    "lon": 45.0,
    "lat": 36.4,
    "cat": "retaliation",
    "label": "Mala Qara, Iraq — French Base",
    "sub": "Iranian drone strike on French base in Iraqi Kurdistan. 1 French soldier killed, 6 injured. First French combat fatality. Announced by Macron.",
    "tier": 1,
    "date": "2026-03-13",
    "lastUpdated": "2026-03-13T05:50:55.000Z"
  },
  {
    "id": "kc135_crash_site_mar13",
    "lon": 43.0,
    "lat": 33.5,
    "cat": "asset",
    "label": "KC-135 Crash Site — Western Iraq",
    "sub": "US Air Force KC-135 tanker crashed in western Iraq supporting Iran ops. 6 crew missing. Not due to hostile fire per CENTCOM; Islamic Resistance in Iraq claims shootdown. First KC-135 loss in 13 years.",
    "tier": 1,
    "date": "2026-03-13",
    "lastUpdated": "2026-03-13T06:00:00.000Z"
  },
  {
    "id": "palmachim_airbase_mar13",
    "lon": 34.69,
    "lat": 31.9,
    "cat": "retaliation",
    "label": "Palmachim Airbase — Iran Strike",
    "sub": "Iranian IRGC targeted Palmachim Airbase (Israel) in 'most intense operation since beginning of war.' Advanced ballistic missiles deployed. 58 Israelis hospitalized.",
    "tier": 2,
    "date": "2026-03-13",
    "lastUpdated": "2026-03-13T06:00:00.000Z"
  },
  {
    "id": "ovda_airbase_mar13",
    "lon": 34.87,
    "lat": 29.94,
    "cat": "retaliation",
    "label": "Ovda Airbase (Negev) — Iran Strike",
    "sub": "IRGC claimed targeting of Ovda Air Base in southern Israel's Negev desert as part of most intense missile barrage of the war.",
    "tier": 2,
    "date": "2026-03-13",
    "lastUpdated": "2026-03-13T06:00:00.000Z"
  },
  {
    "id": "basra_tankers_mar13",
    "lon": 47.85,
    "lat": 29.95,
    "cat": "retaliation",
    "label": "Basra — Tanker Attack (Iraqi Waters)",
    "sub": "Iran underwater drones struck MV Safesea Vishnu (US-owned, Marshall Islands) and MV Zefyros in Iraqi territorial waters near Basra. 1 Indian crew member killed, 25 rescued. First oil-strike in Iraqi waters. Iraq oil terminals suspended.",
    "tier": 1,
    "date": "2026-03-13",
    "lastUpdated": "2026-03-13T06:00:00.000Z"
  },
  {
    "id": "kuwait_airport_mar13",
    "lon": 47.97,
    "lat": 29.23,
    "cat": "retaliation",
    "label": "Kuwait International Airport — Drone Attack",
    "sub": "Iranian drones targeted Kuwait International Airport causing material damage. 6 electricity transmission lines disrupted after intercepted drone debris struck power infrastructure.",
    "tier": 1,
    "date": "2026-03-13",
    "lastUpdated": "2026-03-13T06:00:00.000Z"
  },
  {
    "id": "baghdad_us_embassy_mar14",
    "lon": 44.4,
    "lat": 33.33,
    "cat": "retaliation",
    "label": "Baghdad — US Embassy Helipad Hit",
    "sub": "Missile struck US Embassy Baghdad helipad, destroying the facility's air defense system. No US fatalities reported. First direct strike on the US Embassy compound during the conflict.",
    "tier": 1,
    "date": "2026-03-14",
    "lastUpdated": "2026-03-15T06:00:00.000Z"
  },
  {
    "id": "tel_nof_ab_mar15",
    "lon": 34.82,
    "lat": 31.84,
    "cat": "retaliation",
    "label": "Tel Nof AB — 6th Wave Strike",
    "sub": "IRGC 6th wave targeted Tel Nof Airbase (IAF F-35I squadrons), Israeli Military GHQ, and Tel Aviv defense industry. Sirens across central Israel. Cluster fragments struck Tel Aviv streets.",
    "tier": 1,
    "date": "2026-03-15",
    "lastUpdated": "2026-03-16T06:00:00.000Z"
  },
  {
    "id": "dubai_airport_fuel_mar17",
    "lon": 55.36,
    "lat": 25.25,
    "cat": "retaliation",
    "label": "Dubai Int'l Airport — Fuel Tank Drone Strike",
    "sub": "Iranian Shahed drone struck fuel storage tank near Dubai International Airport. Large fire ignited. Emirates airline suspended all flights. Resumed after several hours.",
    "tier": 1,
    "date": "2026-03-17",
    "lastUpdated": "2026-03-17T06:00:00.000Z"
  },
  {
    "id": "abudhabi_missile_casualty_mar17",
    "lon": 54.37,
    "lat": 24.45,
    "cat": "retaliation",
    "label": "Abu Dhabi — Missile Kills Civilian",
    "sub": "Iranian ballistic missile struck a car in Abu Dhabi, killing a Palestinian resident. Second civilian fatality in Abu Dhabi during the conflict.",
    "tier": 1,
    "date": "2026-03-17",
    "lastUpdated": "2026-03-17T06:00:00.000Z"
  },
  {
    "id": "kuwait_us_embassy_mar17",
    "lon": 47.97,
    "lat": 29.37,
    "cat": "retaliation",
    "label": "Kuwait City — US Embassy Missile Strike",
    "sub": "Iranian ballistic missile struck US Embassy compound in Kuwait City. Rubio ordered closure and evacuation to Bahrain. Second direct hit on a US diplomatic facility during the conflict.",
    "tier": 1,
    "date": "2026-03-17",
    "lastUpdated": "2026-03-17T06:00:00.000Z"
  },
  {
    "id": "tehran_yak130_shootdown_mar17",
    "lon": 51.39,
    "lat": 35.69,
    "cat": "strike",
    "label": "Tehran — IDF F-35I Shoots Down Yak-130",
    "sub": "IDF F-35I 'Adir' shot down an Iranian Yak-130 fighter jet over Tehran — historic first stealth-vs-manned aerial kill in combat. Wreckage fell in Tehran suburbs.",
    "tier": 1,
    "date": "2026-03-17",
    "lastUpdated": "2026-03-17T06:00:00.000Z"
  },
  {
    "id": "ramat_gan_cluster_strike_mar18",
    "lon": 34.82,
    "lat": 32.08,
    "cat": "retaliation",
    "label": "Ramat Gan — Cluster Missile Kills Elderly Couple",
    "sub": "Iranian ballistic missile carrying cluster warhead struck Ramat Gan suburb of Tel Aviv, killing a couple in their 70s — the first confirmed Israeli civilian fatalities from cluster munitions in the conflict. 8 shrapnel impact sites across greater Tel Aviv. IRGC cited 'revenge for Larijani's killing.'",
    "tier": 1,
    "date": "2026-03-18",
    "lastUpdated": "2026-03-18T06:00:00.000Z"
  },
  {
    "id": "bachoura_beirut_idf_strike_mar18",
    "lon": 35.51,
    "lat": 33.89,
    "cat": "strike",
    "label": "Bachoura, Beirut — IDF Airstrike",
    "sub": "IDF airstrike on Bachoura neighborhood of central Beirut — densely populated area. Part of broader IDF operations against Hezbollah targets on Day 19. IDF also issued formal evacuation warnings for Tyre (southern Lebanon) and struck Bekaa Valley infrastructure.",
    "tier": 2,
    "date": "2026-03-18",
    "lastUpdated": "2026-03-18T06:00:00.000Z"
  },
  {
    "id": "uae_shah_gas_field_strike_mar18",
    "lon": 53.50,
    "lat": 24.09,
    "cat": "retaliation",
    "label": "UAE Shah Gas Field — Iranian Drone Strike",
    "sub": "Iranian drone struck the UAE's Shah Gas Field, prompting suspension of operations — the first direct attack on a producing UAE energy field during the conflict. No direct casualties confirmed. Adds to broader Iranian pressure on Gulf energy infrastructure.",
    "tier": 2,
    "date": "2026-03-18",
    "lastUpdated": "2026-03-18T06:00:00.000Z"
  },
  {
    "id": "south_pars_gas_field_mar19",
    "lon": 52.50,
    "lat": 27.40,
    "cat": "strike",
    "label": "South Pars Gas Field — First Upstream Strike",
    "sub": "Israel struck South Pars gas field (world's largest natural gas reserve, shared with Qatar) on March 18–19 — the first direct attack on Iran's upstream oil and gas extraction infrastructure. Brent crude spiked back to ~$108–110/bbl after the strike.",
    "tier": 2,
    "date": "2026-03-19",
    "showLabel": true,
    "lastUpdated": "2026-03-19T06:00:00.000Z"
  },
  {
    "id": "khatib_tehran_strike_mar19",
    "lon": 51.40,
    "lat": 35.70,
    "cat": "strike",
    "label": "Tehran — Intel Minister Khatib Killed",
    "sub": "Israel killed Intelligence Minister Esmail Khatib in a targeted strike. Adds to the decapitation campaign that has eliminated Khamenei, Larijani, Soleimani (Basij), and multiple IRGC commanders.",
    "tier": 2,
    "date": "2026-03-19",
    "lastUpdated": "2026-03-19T06:00:00.000Z"
  },
  {
    "id": "uss_tripoli_arg_approach_mar19",
    "lon": 104.00,
    "lat": 1.20,
    "cat": "asset",
    "label": "USS Tripoli ARG (Near Singapore)",
    "sub": "America-class USS Tripoli ARG with 31st MEU (~2,200 Marines) tracked near Singapore March 17 heading toward the Middle East. Could support mine countermeasures in Hormuz or reinforce Gulf posture.",
    "tier": 2,
    "date": "2026-03-19",
    "lastUpdated": "2026-03-19T06:00:00.000Z"
  }
]