[
  {
    "id": "fukushima-daiichi-npp",
    "lon": 141.034,
    "lat": 37.422,
    "cat": "infrastructure",
    "label": "Fukushima Daiichi NPP",
    "sub": "Six-unit plant; Units 1–4 severely damaged. Site of ongoing decommissioning and ALPS water storage.",
    "tier": 1,
    "date": "2011-03-11",
    "base": true,
    "showLabel": true,
    "lastUpdated": "2026-03-17"
  },
  {
    "id": "fukushima-daini-npp",
    "lon": 141.022,
    "lat": 37.317,
    "cat": "infrastructure",
    "label": "Fukushima Daini NPP",
    "sub": "Four-unit plant safely shut down during the disaster; NRA ordered permanent closure in 2019. TEPCO decommissioning in progress.",
    "tier": 1,
    "date": "2011-03-11",
    "showLabel": true,
    "lastUpdated": "2026-03-17"
  },
  {
    "id": "okuma-hard-return-zone",
    "lon": 141.018,
    "lat": 37.383,
    "cat": "exclusion-zone",
    "label": "Okuma Town (Hard-to-Return Zone)",
    "sub": "Hosts the Daiichi plant; most of town closed since 2011. Small special reconstruction zone opened 2023. Former residents largely have not returned.",
    "tier": 1,
    "date": "2011-03-12",
    "zoneRadius": 8,
    "lastUpdated": "2026-03-17"
  },
  {
    "id": "futaba-hard-return-zone",
    "lon": 141.017,
    "lat": 37.433,
    "cat": "exclusion-zone",
    "label": "Futaba Town (Hard-to-Return Zone)",
    "sub": "Hosts part of Daiichi plant; remains Japan's most heavily restricted municipality. Interim storage facility for contaminated soil located here.",
    "tier": 1,
    "date": "2011-03-12",
    "zoneRadius": 7,
    "lastUpdated": "2026-03-17"
  },
  {
    "id": "namie-return-zone",
    "lon": 140.983,
    "lat": 37.483,
    "cat": "exclusion-zone",
    "label": "Namie Town (Partial Return)",
    "sub": "Most evacuation orders lifted March 2017; hard-to-return zones still closed. Population return rate ~14% as of 2023.",
    "tier": 1,
    "date": "2017-03-31",
    "lastUpdated": "2026-03-17"
  },
  {
    "id": "tomioka-partial-return",
    "lon": 141.001,
    "lat": 37.283,
    "cat": "evacuation",
    "label": "Tomioka Town (Partial Return)",
    "sub": "Partial evacuation order lifted April 2017 for decontaminated areas; northern districts remain restricted. Return rate ~22% as of 2023.",
    "tier": 1,
    "date": "2017-04-01",
    "lastUpdated": "2026-03-17"
  },
  {
    "id": "naraha-returned",
    "lon": 140.997,
    "lat": 37.217,
    "cat": "evacuation",
    "label": "Naraha Town (Returned Sept 2015)",
    "sub": "First entire town to have evacuation order lifted (Sept 5, 2015). Return rate reached ~65% by 2022. 20 km south of Daiichi.",
    "tier": 1,
    "date": "2015-09-05",
    "lastUpdated": "2026-03-17"
  },
  {
    "id": "iitate-village-contamination",
    "lon": 140.717,
    "lat": 37.683,
    "cat": "contamination",
    "label": "Iitate Village (Planned Evacuation Zone)",
    "sub": "40 km NW of Daiichi; designated Planned Evacuation Zone April 2011 due to heavy Cs-137 fallout from NW wind plume. Evacuation orders lifted 2017 for most areas.",
    "tier": 1,
    "date": "2011-04-22",
    "lastUpdated": "2026-03-17"
  },
  {
    "id": "minamisoma-monitoring",
    "lon": 140.967,
    "lat": 37.633,
    "cat": "monitoring",
    "label": "Minamisoma City",
    "sub": "Straddles former exclusion zone boundary; northern Odaka district evacuated. Major monitoring hub; partial liftings through 2017. Active radiation monitoring network.",
    "tier": 1,
    "date": "2011-03-15",
    "showLabel": true,
    "lastUpdated": "2026-03-17"
  },
  {
    "id": "j-village-staging",
    "lon": 141.017,
    "lat": 37.217,
    "cat": "infrastructure",
    "label": "J-Village (Emergency Staging Area)",
    "sub": "Japan's national football training centre converted to emergency response hub March 2011. Workers decontaminated and bused to plant from here. Reopened as sports facility 2019.",
    "tier": 2,
    "date": "2011-03-14",
    "lastUpdated": "2026-03-17"
  },
  {
    "id": "fukushima-city-air-monitor",
    "lon": 140.468,
    "lat": 37.750,
    "cat": "monitoring",
    "label": "Fukushima City (Prefecture Capital)",
    "sub": "60 km W of Daiichi; prefecture capital. Received measurable Cs-137 deposition; widespread decontamination. City now well below intervention levels. Ongoing monitoring.",
    "tier": 1,
    "date": "2011-03-15",
    "showLabel": true,
    "lastUpdated": "2026-03-17"
  },
  {
    "id": "katsurao-village",
    "lon": 140.783,
    "lat": 37.500,
    "cat": "contamination",
    "label": "Katsurao Village",
    "sub": "Located in heavy contamination zone NW of plant. Evacuation order lifted 2016; ongoing decontamination of forests surrounding village.",
    "tier": 1,
    "date": "2011-04-22",
    "lastUpdated": "2026-03-17"
  },
  {
    "id": "sendai-monitoring-station",
    "lon": 140.869,
    "lat": 38.268,
    "cat": "monitoring",
    "label": "Sendai (Regional Hub)",
    "sub": "Miyagi Prefecture capital; 90 km north of Daiichi. Major regional coordination hub for disaster response. Sustained infrastructure damage from 2011 tsunami. Ongoing monitoring station.",
    "tier": 1,
    "date": "2011-03-11",
    "showLabel": true,
    "lastUpdated": "2026-03-17"
  },
  {
    "id": "iwaki-monitoring",
    "lon": 140.887,
    "lat": 37.057,
    "cat": "monitoring",
    "label": "Iwaki City",
    "sub": "Fukushima's largest city; 40 km south of Daiichi. Served as major evacuation destination. Monitoring station; radiation levels remain low.",
    "tier": 1,
    "date": "2011-03-12",
    "lastUpdated": "2026-03-17"
  },
  {
    "id": "soma-monitoring",
    "lon": 140.928,
    "lat": 37.797,
    "cat": "monitoring",
    "label": "Soma City",
    "sub": "Coastal city 40 km north of Daiichi. Sustained severe tsunami damage but outside primary exclusion zone. Ongoing environmental monitoring; fisheries recovery focal point.",
    "tier": 2,
    "date": "2011-03-12",
    "lastUpdated": "2026-03-17"
  },
  {
    "id": "nihonmatsu-contamination",
    "lon": 140.433,
    "lat": 37.583,
    "cat": "contamination",
    "label": "Nihonmatsu City (Decontaminated)",
    "sub": "55 km W of Daiichi; received cesium fallout from NW plume. Intensive decontamination conducted 2012–2014. Now below 0.23 μSv/h intervention standard.",
    "tier": 2,
    "date": "2011-04-01",
    "lastUpdated": "2026-03-17"
  },
  {
    "id": "offshore-alps-discharge-point",
    "lon": 141.034,
    "lat": 37.420,
    "cat": "monitoring",
    "label": "ALPS Water Undersea Discharge Point",
    "sub": "Submarine pipeline extends 1 km offshore from Daiichi. ALPS-treated water discharged here since Aug 24, 2023. IAEA and TEPCO monitor daily tritium levels in surrounding ocean.",
    "tier": 1,
    "date": "2023-08-24",
    "lastUpdated": "2026-03-17"
  },
  {
    "id": "interim-storage-facility",
    "lon": 141.015,
    "lat": 37.410,
    "cat": "infrastructure",
    "label": "Fukushima Interim Storage Facility (FISTF)",
    "sub": "16 km² facility in former exclusion zones of Futaba and Okuma. Stores ~14 million 1-tonne bags of contaminated soil from decontamination operations. Government required to remove waste by 2045.",
    "tier": 1,
    "date": "2015-03-01",
    "lastUpdated": "2026-03-17"
  },
  {
    "id": "coastal-exclusion-zone-center",
    "lon": 141.030,
    "lat": 37.422,
    "cat": "exclusion-zone",
    "label": "20 km Exclusion Zone (Former Boundary)",
    "sub": "Circular 20 km exclusion zone established March 12, 2011. Covered ~1,150 km² and included about 78,000 residents. Zone boundaries later replaced by municipality-specific designations.",
    "tier": 1,
    "date": "2011-03-12",
    "zoneRadius": 20,
    "lastUpdated": "2026-03-17"
  },
  {
    "id": "onagawa-npp",
    "lon": 141.500,
    "lat": 38.400,
    "cat": "infrastructure",
    "label": "Onagawa NPP (Safely Shut Down)",
    "sub": "Tohoku Electric Power Co. plant 130 km north of Daiichi. Although closer to the earthquake epicenter, withstood the tsunami due to higher seawall; safely shut down. Became temporary refuge for tsunami survivors.",
    "tier": 1,
    "date": "2011-03-11",
    "lastUpdated": "2026-03-17"
  }
]
