[
  {
    "id": "naypyidaw-junta-capital",
    "lon": 96.13,
    "lat": 19.75,
    "cat": "territorial",
    "label": "Naypyidaw",
    "sub": "SAC Junta Capital — Military administrative center; site of SAC command; largely isolated from conflict",
    "tier": 1,
    "date": "2021-02-01",
    "base": true,
    "showLabel": true,
    "lastUpdated": "2026-03-20"
  },
  {
    "id": "yangon-cdm-center",
    "lon": 96.16,
    "lat": 16.87,
    "cat": "humanitarian",
    "label": "Yangon",
    "sub": "Myanmar's largest city — CDM epicenter 2021; mass protests; continued SAC control; economic deterioration",
    "tier": 2,
    "date": "2021-02-06",
    "showLabel": true,
    "lastUpdated": "2026-03-20"
  },
  {
    "id": "mandalay-frontline",
    "lon": 96.08,
    "lat": 21.98,
    "cat": "frontline",
    "label": "Mandalay",
    "sub": "Myanmar's second city — Earthquake devastation (Mar 2025); PDF pressure in surrounding townships; SAC still holds city center",
    "tier": 2,
    "date": "2025-03-28",
    "showLabel": true,
    "lastUpdated": "2026-03-20"
  },
  {
    "id": "lashio-n-shan-capital",
    "lon": 97.75,
    "lat": 22.93,
    "cat": "territorial",
    "label": "Lashio",
    "sub": "Northern Shan State capital — Captured by MNDAA/TNLA Aug 2024; first Regional Military Command HQ lost by junta",
    "tier": 2,
    "date": "2024-08-03",
    "showLabel": true,
    "lastUpdated": "2026-03-20"
  },
  {
    "id": "laukkai-kokang",
    "lon": 99.47,
    "lat": 23.78,
    "cat": "territorial",
    "label": "Laukkai",
    "sub": "Kokang capital — Captured by MNDAA Jan 5, 2024; thousands of online scam compound victims freed",
    "tier": 2,
    "date": "2024-01-05",
    "lastUpdated": "2026-03-20"
  },
  {
    "id": "chin-shwe-haw-border",
    "lon": 98.73,
    "lat": 23.56,
    "cat": "territorial",
    "label": "Chin Shwe Haw",
    "sub": "Strategic Myanmar-China border crossing — Captured by MNDAA Nov 2023; cut SAC border revenue and supply routes",
    "tier": 2,
    "date": "2023-11-15",
    "lastUpdated": "2026-03-20"
  },
  {
    "id": "sittwe-contested",
    "lon": 92.90,
    "lat": 20.15,
    "cat": "frontline",
    "label": "Sittwe",
    "sub": "Rakhine State capital — Under AA siege; one of last SAC holdouts in Rakhine; humanitarian crisis for trapped civilians",
    "tier": 2,
    "date": "2024-12-01",
    "showLabel": true,
    "lastUpdated": "2026-03-20"
  },
  {
    "id": "myitkyina-kachin",
    "lon": 97.40,
    "lat": 25.38,
    "cat": "frontline",
    "label": "Myitkyina",
    "sub": "Kachin State capital — KIA pressing SAC outskirts; SAC increasingly isolated; major humanitarian crisis in region",
    "tier": 2,
    "date": "2023-03-01",
    "showLabel": true,
    "lastUpdated": "2026-03-20"
  },
  {
    "id": "loikaw-kayah-capital",
    "lon": 97.21,
    "lat": 19.68,
    "cat": "frontline",
    "label": "Loikaw",
    "sub": "Kayah State capital — Karenni forces have partially surrounded city; SAC relies on airlifts; civilians trapped",
    "tier": 2,
    "date": "2023-06-01",
    "lastUpdated": "2026-03-20"
  },
  {
    "id": "myawaddy-karen-border",
    "lon": 98.50,
    "lat": 16.68,
    "cat": "frontline",
    "label": "Myawaddy",
    "sub": "Karen State border town — KNLA briefly captured Apr 2024; strategic trade corridor with Thailand; contested",
    "tier": 2,
    "date": "2024-04-11",
    "lastUpdated": "2026-03-20"
  },
  {
    "id": "hpa-an-karen-state",
    "lon": 97.63,
    "lat": 16.90,
    "cat": "frontline",
    "label": "Hpa-An",
    "sub": "Karen State capital — KNU/KNLA operations in surrounding areas; SAC under pressure; active frontlines nearby",
    "tier": 2,
    "date": "2022-01-01",
    "lastUpdated": "2026-03-20"
  },
  {
    "id": "ann-township-rakhine",
    "lon": 93.96,
    "lat": 19.66,
    "cat": "territorial",
    "label": "Ann Township",
    "sub": "Former Western Regional Military Command HQ — Captured by AA Dec 20, 2024; devastating strategic loss for junta",
    "tier": 2,
    "date": "2024-12-20",
    "lastUpdated": "2026-03-20"
  },
  {
    "id": "maungdaw-bangladesh-border",
    "lon": 92.37,
    "lat": 20.82,
    "cat": "territorial",
    "label": "Maungdaw",
    "sub": "Northern Rakhine — Captured by AA Dec 2024; AA now controls full 270-km Bangladesh border; Rohingya crisis epicenter",
    "tier": 2,
    "date": "2024-12-08",
    "lastUpdated": "2026-03-20"
  },
  {
    "id": "mrauk-u-rakhine",
    "lon": 93.20,
    "lat": 20.59,
    "cat": "territorial",
    "label": "Mrauk-U",
    "sub": "Ancient Rakhine capital — AA captured entire district by Feb 2024; UNESCO heritage sites at risk during conflict",
    "tier": 2,
    "date": "2024-02-06",
    "lastUpdated": "2026-03-20"
  },
  {
    "id": "paletwa-chin-state",
    "lon": 93.03,
    "lat": 21.59,
    "cat": "territorial",
    "label": "Paletwa",
    "sub": "Chin State — AA captured Jan 2024; controls Kaladan River corridor linking to India's transit project",
    "tier": 2,
    "date": "2024-01-15",
    "lastUpdated": "2026-03-20"
  },
  {
    "id": "sagaing-township",
    "lon": 95.98,
    "lat": 21.88,
    "cat": "humanitarian",
    "label": "Sagaing Region",
    "sub": "PDF heartland — Most villages burned campaign; highest number of airstrike incidents; over 800 villages burned by SAC",
    "tier": 2,
    "date": "2022-01-01",
    "zoneRadius": 80,
    "lastUpdated": "2026-03-20"
  },
  {
    "id": "kalay-sagaing",
    "lon": 94.08,
    "lat": 23.21,
    "cat": "resistance",
    "label": "Kalay",
    "sub": "Sagaing Region — Chin-Sagaing border PDF stronghold; major PDF operations base; CDF and Sagaing PDF cooperation",
    "tier": 2,
    "date": "2021-10-01",
    "lastUpdated": "2026-03-20"
  },
  {
    "id": "hakha-chin-capital",
    "lon": 93.62,
    "lat": 22.64,
    "cat": "resistance",
    "label": "Hakha",
    "sub": "Chin State capital — CDF controls surrounding areas; SAC garrison largely isolated; active resistance operations",
    "tier": 2,
    "date": "2021-05-01",
    "lastUpdated": "2026-03-20"
  },
  {
    "id": "depayin-concert-site",
    "lon": 95.50,
    "lat": 23.00,
    "cat": "junta-operation",
    "label": "Depayin (Kanbalu)",
    "sub": "SAC airstrike Oct 23, 2022 — Bombed charity concert killing 80+ civilians; one of deadliest single air attacks",
    "tier": 2,
    "date": "2022-10-23",
    "lastUpdated": "2026-03-20"
  },
  {
    "id": "pazigyi-airstrike-site",
    "lon": 95.73,
    "lat": 22.78,
    "cat": "junta-operation",
    "label": "Pazigyi Village",
    "sub": "SAC airstrike Apr 11, 2023 — 170+ killed at inauguration ceremony; UN Special Rapporteur called it 'act of pure terror'",
    "tier": 1,
    "date": "2023-04-11",
    "lastUpdated": "2026-03-20"
  },
  {
    "id": "hpruso-massacre-site",
    "lon": 97.43,
    "lat": 19.19,
    "cat": "junta-operation",
    "label": "Hpruso",
    "sub": "Christmas Eve Massacre Dec 24, 2021 — SAC forces burned 35+ civilians alive in vehicles; HRW documented as war crime",
    "tier": 2,
    "date": "2021-12-24",
    "lastUpdated": "2026-03-20"
  },
  {
    "id": "lay-kay-kaw-knu",
    "lon": 98.31,
    "lat": 16.35,
    "cat": "resistance",
    "label": "Lay Kay Kaw",
    "sub": "KNU liberated zone — Model resistance-administered town near Thai border; KNU provides civil governance and services",
    "tier": 2,
    "date": "2021-06-01",
    "lastUpdated": "2026-03-20"
  },
  {
    "id": "mong-ko-shan",
    "lon": 98.47,
    "lat": 23.52,
    "cat": "territorial",
    "label": "Mong Ko",
    "sub": "Northern Shan — Captured by MNDAA in early days of Op 1027; strategic border town controlling trade routes",
    "tier": 2,
    "date": "2023-10-28",
    "lastUpdated": "2026-03-20"
  },
  {
    "id": "taunggyi-shan-capital",
    "lon": 97.04,
    "lat": 20.79,
    "cat": "frontline",
    "label": "Taunggyi",
    "sub": "Southern Shan State capital — SAC holdout but under pressure from RCSS/SSA and PDF forces in surrounding townships",
    "tier": 2,
    "date": "2023-01-01",
    "lastUpdated": "2026-03-20"
  },
  {
    "id": "kyaukpyu-rakhine-port",
    "lon": 93.55,
    "lat": 19.44,
    "cat": "frontline",
    "label": "Kyaukpyu",
    "sub": "Chinese-backed deep-sea port — One of last SAC holdouts in Rakhine; China concerned about project security; AA surrounds",
    "tier": 2,
    "date": "2024-06-01",
    "lastUpdated": "2026-03-20"
  },
  {
    "id": "taungup-rakhine",
    "lon": 94.23,
    "lat": 18.92,
    "cat": "territorial",
    "label": "Taungup",
    "sub": "Southern Rakhine — AA captured after 42-day siege Dec 2024; falls on key highway connecting Rakhine to Bago Region",
    "tier": 2,
    "date": "2024-12-13",
    "lastUpdated": "2026-03-20"
  },
  {
    "id": "demoso-kayah",
    "lon": 97.38,
    "lat": 19.46,
    "cat": "resistance",
    "label": "Demoso",
    "sub": "Kayah State — Karenni resistance stronghold; KNDF/KA base; heavy SAC bombing of civilian areas documented",
    "tier": 2,
    "date": "2021-07-01",
    "lastUpdated": "2026-03-20"
  },
  {
    "id": "bago-crackdown",
    "lon": 96.48,
    "lat": 17.34,
    "cat": "junta-operation",
    "label": "Bago",
    "sub": "Bago Region — Apr 9, 2021 massacre: SAC killed 80+ protesters; one of bloodiest single-day protests crackdowns",
    "tier": 2,
    "date": "2021-04-09",
    "lastUpdated": "2026-03-20"
  },
  {
    "id": "let-yet-kone-camp",
    "lon": 97.38,
    "lat": 25.35,
    "cat": "junta-operation",
    "label": "Let Yet Kone",
    "sub": "Kachin State — Apr 2022 airstrike on school/IDP camp killed 60+ civilians; UN called for accountability",
    "tier": 2,
    "date": "2022-04-11",
    "lastUpdated": "2026-03-20"
  },
  {
    "id": "muse-shan-border",
    "lon": 97.98,
    "lat": 23.97,
    "cat": "frontline",
    "label": "Muse",
    "sub": "Northern Shan — Major China trade gateway; contested; Operation 1027 threatened key Muse-Mandalay highway trade",
    "tier": 2,
    "date": "2023-10-27",
    "lastUpdated": "2026-03-20"
  }
]
